segment,time,throttle,vane,rpm,roll,pitch,yaw,accelx,accely,accelz,gx,gy,gz,magx,magy,magz,encoderGamma,encoderBeta,
0,5.611000,0.000000,0.000000,nan,-4.254608,-6.229400,28.223263,-0.502493,0.039482,9.923634,-0.031714,-0.039384,0.125051,-86.831543,-22.515490,-77.255043,0.000000,0.000000,
0,5.762000,0.000000,0.000000,nan,-3.973913,-4.879264,30.364134,-0.643669,-0.211765,9.780663,-0.078140,-0.087795,0.310906,-87.721947,-21.634296,-76.212509,0.000000,0.000000,
0,5.913000,0.000000,0.000000,nan,-4.264957,-3.951139,32.925297,-0.518644,-0.524626,10.109077,-0.066534,-0.039384,0.403758,-88.887222,-21.045080,-75.551392,0.000000,0.000000,
0,6.064000,0.000000,0.000000,nan,-3.407748,-3.365635,34.974110,-0.384646,-0.001196,10.076775,-0.018123,0.030560,0.217902,-88.887222,-21.045080,-75.551392,0.000000,0.000000,
0,6.215000,0.000000,0.000000,nan,-2.610622,-2.214266,35.489265,-0.662812,1.040280,9.952947,-0.002851,0.123564,0.012651,-89.697388,-20.854376,-76.022675,0.000000,0.000000,
0,6.366000,0.000000,0.000000,nan,-2.125687,-0.267516,36.684978,-0.780658,0.087936,9.863813,0.074576,0.084774,0.144293,-89.289688,-21.250694,-76.228729,0.000000,0.000000,
0,6.517000,0.000000,0.000000,nan,-1.034796,0.416351,37.533524,-0.483350,0.131605,9.987044,-0.002851,0.055758,0.092064,-89.115639,-21.056042,-76.858292,0.000000,0.000000,
0,6.668000,0.000000,0.000000,nan,-0.951280,1.314839,38.752148,-0.562912,-0.110668,10.010373,-0.008502,0.045984,0.212099,-89.115639,-21.056042,-76.858292,0.000000,0.000000,
0,6.819000,0.000000,0.000000,nan,-0.960859,1.700351,40.778225,-0.567697,0.102891,10.036695,-0.054927,0.003376,0.382530,-89.071793,-21.053848,-76.773666,0.000000,0.000000,
0,6.970000,0.000000,0.000000,nan,-1.250216,1.927354,43.905754,-0.723829,0.129212,9.997213,-0.101353,-0.002427,0.378712,-89.658371,-20.898655,-76.190590,0.000000,0.000000,
0,7.121000,0.000000,0.000000,nan,-2.085468,2.250597,45.459072,-0.513260,-0.427717,9.948160,-0.047292,-0.025793,-0.012547,-90.452316,-20.243238,-77.209000,0.000000,0.000000,
0,7.272000,0.000000,0.000000,nan,-1.596779,2.129238,44.915951,-0.689133,-0.010768,9.948160,0.010741,-0.014186,-0.033774,-90.452316,-20.243238,-77.209000,0.000000,0.000000,
0,7.423000,0.000000,0.000000,nan,-1.296284,2.038597,46.545906,-0.407378,-0.010768,10.112069,0.014559,-0.078174,0.330149,-90.586914,-20.482168,-76.705284,0.000000,0.000000,
0,7.574000,0.000000,0.000000,nan,-0.934165,1.613793,48.284668,-0.198006,0.000598,10.001400,-0.008654,-0.014033,0.072669,-91.276520,-19.682961,-76.586464,0.000000,0.000000,
0,7.725000,0.000000,0.000000,nan,-0.825230,1.894944,46.745781,-0.429512,-0.031107,10.042677,0.060984,0.011012,-0.328211,-91.007347,-19.390982,-76.752190,0.000000,0.000000,
0,7.876000,0.000000,0.000000,nan,-0.366354,1.890053,43.484306,-0.038285,0.263210,10.281959,0.053348,0.009180,-0.496658,-90.519402,-20.015268,-76.452316,0.000000,0.000000,
0,8.027000,0.000000,0.000000,nan,0.010957,2.763734,39.528770,-0.897907,0.399003,10.488340,0.010741,0.005209,-0.529492,-90.519402,-20.015268,-76.452316,0.000000,0.000000,
0,8.178000,0.000000,0.000000,nan,-0.612436,2.935353,37.546150,-0.754337,-0.099900,10.269995,0.022347,-0.076189,0.035864,-89.213837,-21.571606,-75.722816,0.000000,0.000000,
0,8.329000,0.000000,0.000000,nan,-0.514427,2.223999,39.838329,-0.470788,0.003589,9.935000,-0.000866,-0.072218,0.339922,-89.165176,-21.290588,-76.437851,0.000000,0.000000,
0,8.480000,0.000000,0.000000,nan,-0.489384,2.063510,42.107510,-0.336790,-0.104686,10.098310,0.004937,0.024757,0.128868,-90.695198,-21.044205,-76.327377,0.000000,0.000000,
0,8.631000,0.000000,0.000000,nan,-0.369252,2.756801,43.220528,-0.792623,-0.032303,10.986646,-0.024079,0.078971,0.314724,-90.695198,-21.044205,-76.327377,0.000000,0.000000,
0,8.782000,0.000000,0.000000,nan,-0.465428,3.189450,45.557453,-0.652044,0.138784,10.165309,0.049378,0.063547,0.084275,-91.131859,-20.324781,-76.248016,0.000000,0.000000,
0,8.933000,0.000000,0.000000,nan,-0.266452,3.332368,43.558006,-0.900299,-0.223131,9.927821,0.047393,0.055758,-0.452064,-90.003838,-20.128380,-75.815758,0.000000,0.000000,
0,9.084000,0.000000,0.000000,nan,-0.182088,3.182005,40.563435,-0.660419,-0.184247,9.911669,-0.068366,0.007194,-0.171372,-89.068718,-21.100321,-76.268623,0.000000,0.000000,
0,9.235000,0.000000,0.000000,nan,-0.387621,3.434707,42.016502,-0.746561,-0.072383,10.274780,-0.022093,-0.116964,0.471564,-89.068718,-21.100321,-76.268623,0.000000,0.000000,
0,9.386000,0.000000,0.000000,nan,-0.184252,2.717555,45.899185,-0.433101,-0.205185,10.289137,-0.076155,-0.058779,0.384363,-89.130974,-20.639996,-76.101158,0.000000,0.000000,
0,9.537000,0.000000,0.000000,nan,-0.557431,2.737603,46.708897,-0.634696,-0.108873,10.168301,-0.000866,0.022771,0.030061,-91.158157,-20.001680,-76.122200,0.000000,0.000000,
0,9.688000,0.000000,0.000000,nan,-0.267790,2.911461,47.787682,-0.581456,0.110070,10.228121,0.043575,0.030407,0.163688,-91.632507,-19.979322,-76.505798,0.000000,0.000000,
0,9.839000,0.000000,0.000000,nan,0.144888,2.995545,49.742989,-0.531207,-0.339781,9.898509,0.053196,0.040181,0.248903,-91.632507,-19.979322,-76.505798,0.000000,0.000000,
0,9.990000,0.000000,0.000000,nan,0.479545,3.156744,51.080570,-0.516850,-0.124427,10.144371,0.002952,0.045984,0.074654,-91.737732,-19.521189,-76.338776,0.000000,0.000000,
0,10.141000,0.000000,0.000000,nan,0.476342,3.512895,51.225822,-0.841675,-0.288335,10.069595,0.051363,-0.070386,-0.008576,-91.568497,-19.558889,-76.379097,0.000000,0.000000,
0,10.292000,0.000000,0.000000,nan,0.829483,2.773481,51.897259,-0.545564,0.220738,10.013365,0.041589,-0.173164,0.196674,-91.516769,-19.463758,-75.957794,0.000000,0.000000,
0,10.443000,0.000000,0.000000,nan,0.776730,1.570438,53.201336,-0.186042,-0.038883,10.097114,0.014559,-0.095584,0.148111,-93.050751,-20.005188,-76.772797,0.000000,0.000000,
0,10.594000,0.000000,0.000000,nan,0.859570,1.278220,54.010391,0.044865,0.811167,10.186845,-0.037518,0.045984,-0.035760,-93.050751,-20.005188,-76.772797,0.000000,0.000000,
0,10.745000,0.000000,0.000000,nan,0.222676,2.175865,53.447983,-0.364307,0.151346,10.112666,-0.049124,0.044152,-0.084171,-93.735970,-19.159506,-76.443550,0.000000,0.000000,
0,10.896000,0.000000,0.000000,nan,0.275338,2.839493,53.995007,-0.788435,-0.108873,10.082757,-0.060731,0.007194,0.024258,-93.146751,-19.361172,-76.563667,0.000000,0.000000,
0,11.047000,0.000000,0.000000,nan,0.248759,2.294276,53.749027,-0.172881,-0.042473,10.121041,-0.054927,0.001391,-0.066761,-93.913963,-19.214743,-76.824081,0.000000,0.000000,
0,11.198000,0.000000,0.000000,nan,-0.096004,2.647675,52.334995,-0.397209,0.184247,9.937990,-0.012472,0.069350,-0.215812,-93.913963,-19.214743,-76.824081,0.000000,0.000000,
0,11.349000,0.000000,0.000000,nan,-0.449817,3.241246,50.127590,-0.373879,0.026919,9.927821,0.051363,0.014983,-0.299195,-93.012169,-19.215181,-76.646523,0.000000,0.000000,
0,11.500000,0.000000,0.000000,nan,-0.052138,3.109067,48.124641,-0.333201,-0.146560,9.951151,0.041589,0.007194,-0.277815,-91.839874,-19.850866,-76.423820,0.000000,0.000000,
0,11.651000,0.000000,0.000000,nan,0.157419,2.996436,46.092014,-0.745364,0.130409,9.943375,0.053196,-0.006398,-0.281633,-91.079681,-20.043764,-76.626358,0.000000,0.000000,
0,11.802000,0.000000,0.000000,nan,0.392533,2.335032,44.323944,-0.263809,-0.032901,10.284352,0.012573,-0.083977,-0.184811,-91.079681,-20.043764,-76.626358,0.000000,0.000000,
0,11.953000,0.000000,0.000000,nan,0.552311,1.577320,43.748192,-0.257228,0.179462,10.023534,0.033954,-0.080160,-0.022168,-91.006027,-20.271734,-76.751747,0.000000,0.000000,
0,12.104000,0.000000,0.000000,nan,0.501072,1.353262,43.789490,-0.021535,0.171685,10.017551,0.006923,-0.031596,-0.008576,-91.287483,-20.749596,-76.922722,0.000000,0.000000,
0,12.255000,0.000000,0.000000,nan,0.355947,1.737463,42.932274,-0.360718,0.185444,10.236495,0.001120,0.042166,-0.221768,-91.049873,-21.247623,-76.541313,0.000000,0.000000,
0,12.406000,0.000000,0.000000,nan,0.275876,1.956068,40.173405,-0.567099,-0.187837,10.406984,-0.022093,-0.035414,-0.363031,-90.504929,-21.683834,-75.735970,0.000000,0.000000,
0,12.557000,0.000000,0.000000,nan,0.251974,1.922940,38.943859,-0.500698,0.061615,9.961919,-0.101353,0.022771,-0.053169,-90.504929,-21.683834,-75.735970,0.000000,0.000000,
0,12.708000,0.000000,0.000000,nan,-0.076035,1.859953,39.986702,-0.251845,-0.186640,9.818948,-0.049124,0.043999,0.268298,-90.057762,-21.243679,-75.942009,0.000000,0.000000,
0,12.859000,0.000000,0.000000,nan,-0.806078,2.388194,41.740166,-0.693919,-0.250648,9.841081,0.051363,0.016968,0.235312,-90.298004,-20.885063,-75.944641,0.000000,0.000000,
0,13.010000,0.000000,0.000000,nan,0.158730,1.979579,42.348537,-0.116650,0.243470,10.013365,0.058999,-0.021822,-0.082338,-91.065216,-20.924520,-75.363327,0.000000,0.000000,
0,13.161000,0.000000,0.000000,nan,0.361346,2.198998,42.584324,-0.182453,0.389432,9.763314,-0.020261,0.003376,0.173309,-91.065216,-20.924520,-75.363327,0.000000,0.000000,
0,13.312000,0.000000,0.000000,nan,-0.285375,2.509154,43.588840,-0.484547,-0.408574,9.988240,-0.025911,0.020786,0.037850,-91.049431,-20.413342,-76.162971,0.000000,0.000000,
0,13.463000,0.000000,0.000000,nan,0.011319,2.043149,42.755550,-0.233300,0.313460,10.006186,-0.047292,0.022771,-0.155795,-91.176567,-20.187563,-77.048111,0.000000,0.000000,
0,13.614000,0.000000,0.000000,nan,-0.339052,2.207672,41.492558,-0.340977,0.009571,10.002597,-0.025911,0.057591,-0.130597,-90.740791,-20.119173,-76.664948,0.000000,0.000000,
0,13.765000,0.000000,0.000000,nan,-0.582438,2.768494,40.406662,-0.593420,-0.148953,9.930214,0.053196,0.012997,-0.097763,-90.740791,-20.119173,-76.664948,0.000000,0.000000,
0,13.916000,0.000000,0.000000,nan,-0.071898,2.707435,39.760651,-0.473779,-0.027517,10.071988,0.099622,-0.052976,-0.053169,-90.161232,-19.718908,-76.322556,0.000000,0.000000,
0,14.067000,0.000000,0.000000,nan,0.773460,2.133956,39.129807,-0.278166,0.244666,10.064810,0.060984,-0.014033,-0.062943,-90.297127,-20.699179,-76.702209,0.000000,0.000000,
0,14.218000,0.000000,0.000000,nan,0.824993,2.127209,38.477383,-0.353540,0.058026,10.029516,-0.010487,0.036363,-0.066761,-90.034523,-20.732498,-76.026176,0.000000,0.000000,
0,14.369000,0.000000,0.000000,nan,0.406105,2.750876,37.872349,-0.424726,-0.015553,10.014561,0.014711,0.046137,-0.115172,-90.034523,-20.732498,-76.026176,0.000000,0.000000,
0,14.520000,0.000000,0.000000,nan,0.838726,2.551794,37.026669,-0.489930,-0.014955,9.844072,-0.105171,-0.031596,-0.190614,-89.753067,-21.042450,-76.401901,0.000000,0.000000,
0,14.671000,0.000000,0.000000,nan,-0.087228,2.234633,35.172577,-0.031705,-0.637687,9.866206,0.033954,-0.097569,-0.285604,-89.145882,-20.918819,-76.269493,0.000000,0.000000,
0,14.822000,0.000000,0.000000,nan,0.567064,1.894295,32.634766,-0.375673,0.093320,10.021739,0.080227,-0.070386,-0.330044,-89.216904,-21.478662,-76.438286,0.000000,0.000000,
0,14.973000,0.000000,0.000000,nan,0.597779,1.786629,29.904043,-0.288335,-0.638285,10.275977,0.047393,0.119746,-0.308817,-88.451454,-21.810972,-75.504486,0.000000,0.000000,
0,15.124000,0.000000,0.000000,nan,0.642806,3.063835,27.961308,-0.800997,-0.256032,9.866805,-0.023926,0.073168,-0.227419,-88.451454,-21.810972,-75.504486,0.000000,0.000000,
0,15.275000,0.000000,0.000000,nan,0.143662,3.130995,26.533037,-0.441476,0.029312,10.098908,0.006770,-0.029610,-0.132582,-87.032333,-21.552753,-76.205490,0.000000,0.000000,
0,15.426000,0.000000,0.000000,nan,0.575444,2.676774,25.673529,-0.247657,0.157328,9.994821,-0.006669,0.024604,-0.093792,-86.666267,-21.904793,-76.496155,0.000000,0.000000,
0,15.577000,0.000000,0.000000,nan,0.497491,2.882887,25.023077,-0.488136,0.125025,9.899107,-0.052942,0.038348,-0.097763,-86.233559,-21.882872,-76.197159,0.000000,0.000000,
0,15.728000,0.000000,0.000000,nan,-0.095221,3.074617,24.456783,-0.587438,-0.031107,9.860224,-0.072337,-0.014186,-0.072564,-86.233559,-21.882872,-76.197159,0.000000,0.000000,
0,15.879000,0.000000,0.000000,nan,-0.437848,2.722301,24.077642,-0.476172,-0.135194,9.907482,0.014711,-0.070386,-0.053169,-86.099846,-21.643942,-76.785065,0.000000,0.000000,
0,16.030001,0.000000,0.000000,nan,-0.042248,2.153402,23.800003,-0.279362,0.055633,10.033106,0.053348,-0.019989,0.003030,-85.823212,-21.444904,-75.814438,0.000000,0.000000,
0,16.181000,0.000000,0.000000,nan,0.411287,2.086417,23.646877,-0.382852,0.126221,10.048061,0.024180,0.022771,0.008833,-86.405411,-21.938110,-75.988480,0.000000,0.000000,
0,16.332001,0.000000,0.000000,nan,0.378995,2.364097,23.578074,-0.564108,0.019143,10.055240,0.016544,0.007194,0.020440,-86.405411,-21.938110,-75.988480,0.000000,0.000000,
0,16.483000,0.000000,0.000000,nan,0.151168,2.413752,23.597898,-0.504287,-0.081356,9.940982,0.039757,-0.047020,0.047471,-85.891602,-21.911806,-76.151573,0.000000,0.000000,
0,16.634001,0.000000,0.000000,nan,0.514981,2.196572,23.836117,-0.262014,0.062812,10.066606,0.078394,-0.004412,0.051289,-86.141495,-21.739075,-76.238373,0.000000,0.000000,
0,16.785000,0.000000,0.000000,nan,1.102690,2.245190,24.158398,-0.327219,0.228515,10.022936,0.053196,0.053773,0.033879,-86.624626,-22.783354,-76.747803,0.000000,0.000000,
0,16.936001,0.000000,0.000000,nan,1.081489,2.676711,24.533537,-0.527617,0.140578,9.999606,-0.041336,0.028574,0.062895,-86.624626,-22.783354,-76.747803,0.000000,0.000000,
0,17.087000,0.000000,0.000000,nan,0.446958,2.964400,24.751865,-0.512064,-0.023330,9.992428,-0.047292,0.012997,0.028076,-86.384811,-22.493568,-75.609261,0.000000,0.000000,
0,17.238001,0.000000,0.000000,nan,0.193719,2.864164,25.207174,-0.417548,-0.010768,10.028918,-0.014305,-0.018004,0.055259,-86.557541,-22.409395,-76.116058,0.000000,0.000000,
0,17.389000,0.000000,0.000000,nan,0.444196,2.642558,25.788485,-0.333799,0.160319,10.049855,-0.024079,0.022771,0.070684,-86.510201,-22.314260,-76.115623,0.000000,0.000000,
0,17.540001,0.000000,0.000000,nan,0.399565,2.721912,26.433990,-0.485743,0.089133,10.026525,-0.070352,0.014983,0.066866,-87.119568,-22.298477,-77.089760,0.000000,0.000000,
0,17.691000,0.000000,0.000000,nan,-0.150571,2.902115,27.014782,-0.568894,-0.029910,10.036695,-0.068366,0.011012,0.088093,-87.119568,-22.298477,-77.089760,0.000000,0.000000,
0,17.841999,0.000000,0.000000,nan,-0.527643,2.591229,27.644655,-0.494716,-0.087338,10.238889,0.006770,-0.035414,0.080457,-86.782448,-21.446661,-77.381302,0.000000,0.000000,
0,17.993000,0.000000,0.000000,nan,-0.123052,2.188567,28.589018,-0.369691,0.049053,10.004392,0.031968,-0.025793,0.150096,-87.262489,-21.610184,-77.470291,0.000000,0.000000,
0,18.143999,0.000000,0.000000,nan,0.420370,2.113284,29.537582,-0.360120,0.148355,9.938589,0.033954,0.007194,0.134519,-87.525101,-21.762747,-77.304565,0.000000,0.000000,
0,18.295000,0.000000,0.000000,nan,0.379306,2.316519,30.557718,-0.522832,0.095115,9.986445,0.002952,-0.027625,0.132686,-87.525101,-21.762747,-77.304565,0.000000,0.000000,
0,18.445999,0.000000,0.000000,nan,0.157245,2.392133,31.679003,-0.442672,-0.084347,10.134801,0.029983,-0.037399,0.169491,-87.880211,-21.131886,-77.224342,0.000000,0.000000,
0,18.597000,0.000000,0.000000,nan,0.435839,2.196221,32.927246,-0.347557,0.044865,10.043874,0.070605,-0.010215,0.221720,-88.537376,-21.350647,-77.609695,0.000000,0.000000,
0,18.747999,0.000000,0.000000,nan,1.006247,2.156119,34.278633,-0.372084,0.228515,9.993624,0.041589,0.026589,0.150096,-88.744301,-22.335304,-76.559280,0.000000,0.000000,
0,18.899000,0.000000,0.000000,nan,1.038489,2.521534,35.619995,-0.467199,0.165703,10.017551,-0.035685,0.047969,0.148263,-88.744301,-22.335304,-76.559280,0.000000,0.000000,
0,19.049999,0.000000,0.000000,nan,0.467182,2.872142,36.813549,-0.538385,0.021535,10.021739,-0.052942,0.011012,0.173309,-89.284416,-21.945562,-76.691254,0.000000,0.000000,
0,19.201000,0.000000,0.000000,nan,0.212256,2.870688,38.195751,-0.445065,0.007777,10.090533,-0.010487,0.001391,0.204310,-88.912651,-21.230965,-77.150696,0.000000,0.000000,
0,19.351999,0.000000,0.000000,nan,0.471308,2.654233,39.533047,-0.355334,0.123230,10.023534,-0.022093,0.028574,0.155899,-90.039345,-20.593086,-77.120445,0.000000,0.000000,
0,19.503000,0.000000,0.000000,nan,0.468182,2.745088,40.878078,-0.442074,0.157926,10.066606,-0.078140,0.059576,0.169491,-90.039345,-20.593086,-77.120445,0.000000,0.000000,
0,19.653999,0.000000,0.000000,nan,-0.058824,3.048011,42.146908,-0.536590,-0.019143,10.062418,-0.068366,0.009180,0.155899,-90.134048,-20.783356,-77.121323,0.000000,0.000000,
0,19.805000,0.000000,0.000000,nan,-0.400426,2.963737,43.437431,-0.485743,-0.098106,10.061221,-0.008502,-0.029610,0.204310,-90.098099,-20.179234,-76.405853,0.000000,0.000000,
0,19.955999,0.000000,0.000000,nan,-0.020791,2.550174,45.003349,-0.369691,0.028116,10.021142,0.039757,-0.021975,0.186901,-90.638641,-20.577303,-77.126587,0.000000,0.000000,
0,20.107000,0.000000,0.000000,nan,0.441661,2.282558,46.540653,-0.385843,0.090329,10.023534,0.001120,0.003376,0.198507,-92.070473,-19.954771,-77.520271,0.000000,0.000000,
0,20.257999,0.000000,0.000000,nan,0.365083,2.454176,48.125526,-0.510269,0.055633,10.056436,-0.014458,-0.004412,0.190719,-92.070473,-19.954771,-77.520271,0.000000,0.000000,
0,20.409000,0.000000,0.000000,nan,0.246518,2.603444,49.610226,-0.501296,-0.068794,9.996017,0.039757,-0.049005,0.175294,-91.971397,-19.764503,-77.098526,0.000000,0.000000,
0,20.559999,0.000000,0.000000,nan,0.513200,2.358950,51.099606,-0.398405,0.031705,9.966106,0.070605,-0.050991,0.188886,-92.760086,-19.062618,-77.822334,0.000000,0.000000,
0,20.714001,0.000000,0.000000,nan,0.972071,2.077442,52.537289,-0.326022,0.163310,10.038489,0.014559,0.016815,0.155899,-93.497040,-20.212988,-77.534737,0.000000,0.000000,
0,20.865000,0.000000,0.000000,nan,0.894647,2.306746,53.760704,-0.442672,0.121436,10.049855,-0.049124,0.051787,0.182930,-93.497040,-20.212988,-77.534737,0.000000,0.000000,
0,21.016001,0.000000,0.000000,nan,0.461120,2.769819,54.819851,-0.494118,0.002393,10.024132,-0.025911,0.020786,0.111306,-93.669777,-19.387476,-77.284401,0.000000,0.000000,
0,21.167000,0.000000,0.000000,nan,0.259179,2.861864,55.914455,-0.427717,0.053839,10.018748,-0.008654,0.007194,0.163688,-93.052940,-19.124434,-76.857399,0.000000,0.000000,
0,21.318001,0.000000,0.000000,nan,0.443874,2.620616,56.894962,-0.359522,0.186640,10.023534,-0.008502,0.028574,0.113291,-93.905197,-18.194578,-76.487831,0.000000,0.000000,
0,21.469000,0.000000,0.000000,nan,0.352640,2.702092,57.798286,-0.434297,0.063410,10.079764,-0.060731,0.059576,0.103670,-93.905197,-18.194578,-76.487831,0.000000,0.000000,
0,21.620001,0.000000,0.000000,nan,-0.070277,3.118844,58.720982,-0.576072,-0.026919,10.027721,-0.054927,0.040181,0.126883,-93.787697,-18.327412,-76.949463,0.000000,0.000000,
0,21.771000,0.000000,0.000000,nan,-0.232772,3.129522,59.634197,-0.509671,-0.065204,10.026525,0.010741,-0.025793,0.136504,-93.783752,-18.095058,-77.622864,0.000000,0.000000,
0,21.922001,0.000000,0.000000,nan,0.073342,2.620459,60.638798,-0.393021,0.055633,10.074981,0.024332,-0.045187,0.136504,-94.419006,-17.942055,-77.587341,0.000000,0.000000,
0,22.073000,0.000000,0.000000,nan,0.354882,2.267948,61.493626,-0.404387,0.116650,10.039088,0.006923,-0.014033,0.128716,-94.419006,-17.942055,-77.587341,0.000000,0.000000,
0,22.224001,0.000000,0.000000,nan,0.286649,2.501950,62.276295,-0.494716,-0.000598,10.013963,-0.002851,0.016968,0.066866,-94.229622,-17.700933,-76.954285,0.000000,0.000000,
0,22.375000,0.000000,0.000000,nan,0.238061,2.652002,62.962978,-0.504287,-0.017348,10.054641,0.031968,-0.037399,0.090078,-94.708351,-17.817987,-77.127464,0.000000,0.000000,
0,22.525999,0.000000,0.000000,nan,0.521954,2.303522,63.652225,-0.373879,0.081954,10.045070,0.045560,-0.058779,0.078472,-95.376480,-17.434824,-77.176559,0.000000,0.000000,
0,22.677000,0.000000,0.000000,nan,0.844455,1.988986,64.150963,-0.281157,0.132203,10.043874,0.008755,-0.000442,0.033879,-95.342728,-17.897341,-75.955612,0.000000,0.000000,
0,22.827999,0.000000,0.000000,nan,0.645440,2.275343,64.358040,-0.466002,0.065803,10.088738,-0.022093,0.055758,0.047471,-95.342728,-17.897341,-75.955612,0.000000,0.000000,
0,22.979000,0.000000,0.000000,nan,0.339859,2.828774,64.550591,-0.512662,0.005384,10.013963,-0.002851,0.020786,0.047471,-95.135796,-17.746965,-77.342285,0.000000,0.000000,
0,23.129999,0.000000,0.000000,nan,0.325561,2.832205,64.615540,-0.457029,0.001795,10.042078,-0.014458,0.009180,0.002877,-94.663193,-16.888571,-77.001205,0.000000,0.000000,
0,23.281000,0.000000,0.000000,nan,0.402557,2.561819,64.592621,-0.282353,0.071785,10.049257,-0.027897,0.007194,0.006848,-94.567184,-17.486115,-77.420753,0.000000,0.000000,
0,23.431999,0.000000,0.000000,nan,0.243712,2.625392,64.679855,-0.451645,0.026919,9.993026,-0.037518,0.047969,-0.000940,-94.567184,-17.486115,-77.420753,0.000000,0.000000,
0,23.583000,0.000000,0.000000,nan,-0.087406,3.021077,64.687294,-0.518644,-0.028714,9.997810,-0.033700,0.022771,0.004863,-94.917915,-16.622900,-77.971840,0.000000,0.000000,
0,23.733999,0.000000,0.000000,nan,-0.076151,3.039494,64.719833,-0.501895,0.019143,9.997810,0.004937,-0.008230,-0.004758,-93.966133,-16.481731,-77.751755,0.000000,0.000000,
0,23.885000,0.000000,0.000000,nan,0.217180,2.610809,64.727814,-0.350549,0.022732,10.133603,0.008755,-0.054809,-0.002773,-95.027519,-16.350649,-77.383919,0.000000,0.000000,
0,24.035999,0.000000,0.000000,nan,0.358859,2.311617,64.806137,-0.447458,0.041276,10.141381,0.006923,-0.008230,0.020440,-95.027519,-16.350649,-77.383919,0.000000,0.000000,
0,24.187000,0.000000,0.000000,nan,0.314381,2.467238,64.827019,-0.447458,-0.010768,10.108479,0.012726,-0.000594,0.034032,-95.123520,-16.540916,-77.511063,0.000000,0.000000,
0,24.337999,0.000000,0.000000,nan,0.355095,2.629660,64.744743,-0.557528,0.004187,9.997213,0.051363,-0.045187,-0.014379,-94.842064,-16.897339,-77.676338,0.000000,0.000000,
0,24.489000,0.000000,0.000000,nan,0.687372,2.283326,64.549339,-0.384646,0.113659,10.041480,0.028150,-0.050991,0.001045,-95.324753,-17.200274,-77.386551,0.000000,0.000000,
0,24.639999,0.000000,0.000000,nan,0.807003,2.011237,64.235916,-0.296112,0.108873,10.067801,-0.016290,-0.000594,0.020287,-95.401466,-17.204659,-76.503609,0.000000,0.000000,
0,24.791000,0.000000,0.000000,nan,0.571386,2.276654,63.880299,-0.438485,0.020937,10.120443,-0.020108,0.040181,-0.039578,-95.401466,-17.204659,-76.503609,0.000000,0.000000,
0,24.941999,0.000000,0.000000,nan,0.377643,2.777677,63.556759,-0.547956,0.028714,10.013963,0.003105,0.018801,-0.028124,-95.255043,-17.567661,-77.259415,0.000000,0.000000,
0,25.093000,0.000000,0.000000,nan,0.429127,2.810348,63.041233,-0.420539,0.157926,10.006784,0.004937,-0.010215,-0.031942,-94.646980,-18.231844,-77.589539,0.000000,0.000000,
0,25.243999,0.000000,0.000000,nan,0.390655,2.536036,62.380581,-0.320040,0.104686,10.021739,-0.027897,0.011165,-0.101580,-94.806114,-17.313387,-76.455391,0.000000,0.000000,
0,25.395000,0.000000,0.000000,nan,0.129842,2.641939,61.885353,-0.434896,0.029312,10.031909,-0.037518,0.047969,-0.087989,-94.806114,-17.313387,-76.455391,0.000000,0.000000,
0,25.546000,0.000000,0.000000,nan,-0.040081,3.003330,61.314571,-0.519243,-0.047258,10.054043,0.002952,0.036363,-0.058973,-94.570694,-17.625530,-77.126144,0.000000,0.000000,
0,25.697001,0.000000,0.000000,nan,0.064457,2.994401,60.774796,-0.497109,0.023330,9.955338,0.020362,-0.023807,-0.072564,-94.191032,-17.791683,-76.953850,0.000000,0.000000,
0,25.848000,0.000000,0.000000,nan,0.324945,2.557387,60.383675,-0.404387,0.106481,10.058828,0.004937,-0.031596,-0.119143,-94.396652,-17.616762,-76.913971,0.000000,0.000000,
0,25.999001,0.000000,0.000000,nan,0.368642,2.285737,59.940617,-0.342772,0.046062,10.035498,0.006923,-0.018004,-0.118990,-94.396652,-17.616762,-76.913971,0.000000,0.000000,
0,26.150000,0.000000,0.000000,nan,0.308598,2.501465,59.361061,-0.476770,-0.026919,10.041480,0.026165,0.003376,-0.097763,-94.022247,-17.782915,-77.246704,0.000000,0.000000,
0,26.301001,0.000000,0.000000,nan,0.479313,2.601976,58.748955,-0.483948,0.074776,10.015160,0.047393,-0.029610,-0.111354,-94.601814,-18.322590,-76.957794,0.000000,0.000000,
0,26.452000,0.000000,0.000000,nan,0.787628,2.348084,58.153465,-0.370289,0.174078,10.016954,0.026165,-0.050991,-0.053169,-94.178322,-18.533024,-76.490463,0.000000,0.000000,
0,26.603001,0.000000,0.000000,nan,0.775560,2.141002,57.504707,-0.348754,0.116650,10.045070,-0.014305,0.005209,-0.086156,-94.178322,-18.533024,-76.490463,0.000000,0.000000,
0,26.754000,0.000000,0.000000,nan,0.465341,2.337830,56.917683,-0.400200,0.013759,10.051052,-0.020261,0.032392,-0.086156,-94.488274,-18.780724,-76.325172,0.000000,0.000000,
0,26.905001,0.000000,0.000000,nan,0.278303,2.657408,56.098892,-0.431904,0.081954,10.034901,-0.004684,0.011165,-0.074550,-93.811371,-18.745649,-77.328255,0.000000,0.000000,
0,27.056000,0.000000,0.000000,nan,0.310077,2.679021,55.440208,-0.421735,0.116650,10.041480,-0.010487,-0.008383,-0.047366,-93.600067,-18.874105,-77.031441,0.000000,0.000000,
0,27.207001,0.000000,0.000000,nan,0.272670,2.441872,54.890320,-0.378664,0.081356,10.070194,-0.041488,0.012997,-0.072564,-93.481262,-19.239294,-76.314651,0.000000,0.000000,
0,27.358000,0.000000,0.000000,nan,-0.008553,2.534634,54.140427,-0.466600,-0.018544,10.001400,-0.029729,0.026589,-0.080353,-93.481262,-19.239294,-76.314651,0.000000,0.000000,
0,27.509001,0.000000,0.000000,nan,-0.145655,2.826882,53.697235,-0.485743,-0.101695,10.031310,-0.000866,0.030560,-0.053169,-92.772804,-18.739513,-76.391808,0.000000,0.000000,
0,27.660000,0.000000,0.000000,nan,0.045849,2.855634,53.352730,-0.541376,0.040080,10.010972,0.028150,-0.016019,-0.057140,-92.599190,-18.684275,-76.432152,0.000000,0.000000,
0,27.811001,0.000000,0.000000,nan,0.280232,2.518243,52.952541,-0.388235,0.106481,10.032507,0.010741,-0.033428,-0.093945,-92.537819,-19.098129,-76.894241,0.000000,0.000000,
0,27.962000,0.000000,0.000000,nan,0.373737,2.318869,52.469769,-0.427717,-0.004187,10.013963,0.022347,-0.018004,-0.051184,-92.537819,-19.098129,-76.894241,0.000000,0.000000,
0,28.113001,0.000000,0.000000,nan,0.381144,2.492911,52.069237,-0.496511,0.023330,10.043276,0.041742,-0.000594,-0.033774,-92.530357,-19.005186,-76.599617,0.000000,0.000000,
0,28.264000,0.000000,0.000000,nan,0.615195,2.593814,51.698681,-0.501296,0.092722,10.040284,0.051363,-0.014033,-0.020335,-92.899933,-19.673313,-76.140175,0.000000,0.000000,
0,28.415001,0.000000,0.000000,nan,0.775373,2.399794,51.367554,-0.427717,0.118445,10.061221,0.004937,-0.035414,-0.078368,-92.297562,-19.642624,-76.049850,0.000000,0.000000,
0,28.566000,0.000000,0.000000,nan,0.701043,2.202631,50.949924,-0.345763,0.089133,9.998409,-0.029882,0.007194,-0.027971,-92.297562,-19.642624,-76.049850,0.000000,0.000000,
0,28.716999,0.000000,0.000000,nan,0.446878,2.368639,50.564754,-0.412762,-0.005982,10.056436,-0.033700,0.036363,-0.084171,-92.643036,-19.567223,-76.642578,0.000000,0.000000,
0,28.868000,0.000000,0.000000,nan,0.307959,2.661779,50.173832,-0.516850,0.092722,10.060025,-0.006669,0.011012,-0.078368,-92.547897,-19.423424,-76.389175,0.000000,0.000000,
0,29.018999,0.000000,0.000000,nan,0.259675,2.595730,49.803501,-0.512064,0.138186,10.023534,-0.033700,-0.006398,-0.035760,-92.286606,-19.317331,-76.470734,0.000000,0.000000,
0,29.170000,0.000000,0.000000,nan,0.294590,2.277999,48.613064,-0.339781,-0.052044,10.024132,-0.045306,0.003376,-0.215812,-92.286606,-19.317331,-76.470734,0.000000,0.000000,
0,29.320999,0.000000,0.000000,nan,-0.013517,2.446727,46.779167,-0.385843,-0.098704,9.978071,0.031968,0.042166,-0.237040,-92.211639,-18.757486,-75.923172,0.000000,0.000000,
0,29.472000,0.000000,0.000000,nan,0.257712,2.872832,45.961494,-0.524626,0.081356,10.063016,0.058999,0.028574,0.014637,-91.080124,-19.023602,-77.173927,0.000000,0.000000,
0,29.622999,0.000000,0.000000,nan,0.665682,2.887771,45.975994,-0.479761,0.188435,10.083356,-0.002698,0.003376,0.010666,-91.544395,-20.021408,-76.084061,0.000000,0.000000,
0,29.774000,0.000000,0.000000,nan,0.439810,2.713091,45.604790,-0.518644,0.104686,10.065408,-0.041336,-0.018004,-0.049352,-90.938515,-19.665424,-77.130089,0.000000,0.000000,
0,29.924999,0.000000,0.000000,nan,-0.057437,2.616110,45.145107,-0.477368,-0.132802,10.042677,-0.023926,-0.025793,-0.006744,-90.938515,-19.665424,-77.130089,0.000000,0.000000,
0,30.076000,0.000000,0.000000,nan,-0.098656,2.582376,45.099472,-0.479163,0.027517,10.074981,0.022347,-0.008383,0.008681,-91.187531,-19.539162,-76.922279,0.000000,0.000000,
0,30.226999,0.000000,0.000000,nan,0.262275,2.452898,45.405247,-0.446261,0.120838,10.034901,0.016544,-0.023807,0.092064,-91.295807,-19.915314,-77.386124,0.000000,0.000000,
0,30.378000,0.000000,0.000000,nan,0.406985,2.299640,45.763714,-0.434896,0.054437,10.084551,-0.029882,0.007194,-0.012547,-91.708794,-19.751352,-76.632935,0.000000,0.000000,
0,30.528999,0.000000,0.000000,nan,0.162342,2.340063,45.431904,-0.412762,-0.007178,10.053444,-0.022093,0.012997,0.001045,-91.708794,-19.751352,-76.632935,0.000000,0.000000,
0,30.680000,0.000000,0.000000,nan,0.053128,2.517873,45.275303,-0.509671,-0.016152,10.116257,0.026165,0.003376,-0.016365,-91.706161,-19.797821,-76.169983,0.000000,0.000000,
0,30.830999,0.000000,0.000000,nan,0.233168,2.508897,45.171646,-0.371486,0.041874,9.994821,0.022347,-0.010215,-0.014532,-91.705727,-19.751352,-76.338341,0.000000,0.000000,
0,30.982000,0.000000,0.000000,nan,0.480022,2.307227,45.204716,-0.406182,0.111864,9.997810,0.001120,-0.000594,-0.016517,-91.363327,-19.733816,-76.461090,0.000000,0.000000,
0,31.132999,0.000000,0.000000,nan,0.473492,2.413173,45.276867,-0.406182,0.046062,10.052249,-0.020261,0.026589,0.004863,-91.363327,-19.733816,-76.461090,0.000000,0.000000,
0,31.284000,0.000000,0.000000,nan,0.242367,2.660842,45.027351,-0.433699,0.003589,10.021142,-0.018275,0.007194,-0.012547,-91.625931,-19.979322,-75.874496,0.000000,0.000000,
0,31.434999,0.000000,0.000000,nan,0.266571,2.641129,44.134243,-0.568295,-0.133998,10.041480,-0.020108,-0.021822,-0.186796,-90.918793,-19.572481,-75.657043,0.000000,0.000000,
0,31.586000,0.000000,0.000000,nan,0.257157,2.487345,43.009434,-0.218345,-0.167498,10.097712,0.041589,0.014983,-0.060958,-90.681610,-19.931097,-75.949020,0.000000,0.000000,
0,31.737000,0.000000,0.000000,nan,0.538029,2.976396,42.456509,-0.405583,0.163908,10.128220,0.014559,0.026589,-0.148159,-90.681610,-19.931097,-75.949020,0.000000,0.000000,
0,31.888000,0.000000,0.000000,nan,0.365361,3.186866,41.771858,-0.285942,0.041874,9.847662,-0.047139,0.057743,-0.014532,-90.515450,-20.849554,-76.409798,0.000000,0.000000,
0,32.039001,0.000000,0.000000,nan,0.329739,3.199369,41.032974,-0.533599,0.005384,9.984053,-0.074322,-0.012048,-0.057140,-89.820145,-20.675068,-76.276512,0.000000,0.000000,
0,32.189999,0.000000,0.000000,nan,-0.402126,3.162586,41.261120,-0.607777,-0.215354,10.006784,-0.027897,-0.080007,0.066866,-90.333076,-19.634737,-76.745171,0.000000,0.000000,
0,32.341000,0.000000,0.000000,nan,-0.254703,2.578842,41.765141,-0.532403,0.002393,10.205389,0.029983,-0.049005,0.099700,-90.993317,-19.205101,-76.247139,0.000000,0.000000,
0,32.492001,0.000000,0.000000,nan,0.026977,2.356890,42.623169,-0.024526,-0.059821,10.027721,0.033954,0.016968,0.064880,-90.993317,-19.205101,-76.247139,0.000000,0.000000,
0,32.643002,0.000000,0.000000,nan,-1.980662,3.130539,43.349216,-0.351745,-0.494716,10.221540,-1.511841,1.989910,2.342033,-92.917473,-21.899532,-75.970947,0.000000,0.000000,
0,32.793999,0.000000,0.000000,nan,-0.898614,3.898895,44.220650,-0.464208,-0.105284,10.173683,0.014559,-0.018004,0.059077,-92.783325,-22.541355,-76.642578,0.000000,0.000000,
0,32.945000,0.000000,0.000000,nan,0.142482,2.966407,44.027611,-0.182453,0.235693,10.058828,0.078394,-0.004412,0.088093,-92.049866,-22.597031,-75.919670,0.000000,0.000000,
0,33.096001,0.000000,0.000000,nan,1.090576,2.629206,44.822598,-0.335593,0.260219,10.182657,0.018376,0.057743,0.097867,-92.049866,-22.597031,-75.919670,0.000000,0.000000,
0,33.247002,0.000000,0.000000,nan,0.641436,3.168890,45.264008,-0.644267,0.023928,10.162916,-0.070352,0.030560,0.032046,-92.313354,-22.656656,-76.258980,0.000000,0.000000,
0,33.397999,0.000000,0.000000,nan,-0.019066,3.408328,45.763718,-0.589831,-0.115454,9.972687,0.008755,-0.056794,0.070684,-92.204628,-22.187563,-76.173927,0.000000,0.000000,
0,33.549000,0.000000,0.000000,nan,0.342609,2.634408,46.467762,-0.296710,0.047856,10.009178,0.049378,-0.031596,0.068698,-92.714493,-22.167395,-75.842499,0.000000,0.000000,
0,33.700001,0.000000,0.000000,nan,1.012658,2.219572,46.917969,-0.294317,0.268594,10.052249,0.004937,0.034378,0.008681,-92.714493,-22.167395,-75.842499,0.000000,0.000000,
0,33.851002,0.000000,0.000000,nan,0.697492,2.752200,46.920109,-0.569492,0.110070,10.077372,-0.049124,0.036363,-0.012547,-92.842941,-22.359856,-74.959999,0.000000,0.000000,
0,34.001999,0.000000,0.000000,nan,0.122550,3.022991,46.737858,-0.584447,-0.066999,10.007382,-0.016290,-0.010215,-0.031942,-92.338776,-21.545736,-75.502296,0.000000,0.000000,
0,34.153000,0.000000,0.000000,nan,0.203715,2.686454,46.701157,-0.388235,0.098704,9.970892,0.022347,-0.033581,0.020287,-93.159035,-22.514612,-75.804794,0.000000,0.000000,
0,34.304001,0.000000,0.000000,nan,0.685758,2.319882,47.007568,-0.316451,0.189033,9.994821,0.035786,0.009180,0.031894,-93.159035,-22.514612,-75.804794,0.000000,0.000000,
0,34.455002,0.000000,0.000000,nan,0.670082,2.536424,47.073784,-0.448056,0.110668,10.001998,-0.033700,0.053773,-0.026139,-92.662758,-21.979321,-75.842056,0.000000,0.000000,
0,34.605999,0.000000,0.000000,nan,0.344753,2.930485,46.828751,-0.582652,-0.025125,10.036097,-0.010487,0.011165,-0.033774,-92.627251,-22.116541,-75.925804,0.000000,0.000000,
0,34.757000,0.000000,0.000000,nan,0.302758,2.764240,46.853573,-0.405583,0.079561,9.962517,0.022347,-0.041370,-0.002926,-93.142815,-22.189316,-75.720627,0.000000,0.000000,
0,34.908001,0.000000,0.000000,nan,0.422798,2.402465,46.980850,-0.355334,0.097508,10.028918,0.020362,-0.019837,0.055259,-92.859161,-21.711454,-75.339203,0.000000,0.000000,
0,35.058998,0.000000,0.000000,nan,0.552044,2.366318,47.166050,-0.410369,0.083749,10.043874,-0.037518,0.034378,-0.031942,-92.859161,-21.711454,-75.339203,0.000000,0.000000,
0,35.209999,0.000000,0.000000,nan,0.346783,2.667486,47.125404,-0.530608,0.026919,10.039088,-0.014305,0.007194,-0.024153,-92.676353,-22.072262,-76.725883,0.000000,0.000000,
0,35.361000,0.000000,0.000000,nan,0.270626,2.702510,46.958111,-0.558126,0.037687,10.048658,0.006923,-0.025793,0.010666,-92.970520,-22.087606,-76.097649,0.000000,0.000000,
0,35.512001,0.000000,0.000000,nan,0.452378,2.370213,46.973629,-0.346959,0.107677,10.016356,0.014559,-0.023807,-0.000940,-92.625938,-22.070070,-76.009972,0.000000,0.000000,
0,35.662998,0.000000,0.000000,nan,0.497289,2.212180,46.847614,-0.346361,0.117248,10.009178,-0.020261,0.007194,0.035864,-92.625938,-22.070070,-76.009972,0.000000,0.000000,
0,35.814999,0.000000,0.000000,nan,0.287201,2.481229,46.742302,-0.490529,0.000598,10.022338,-0.000866,0.016968,-0.022321,-92.925369,-21.992474,-76.307640,0.000000,0.000000,
0,35.966999,0.000000,0.000000,nan,0.201655,2.657909,46.610352,-0.453440,0.040678,9.985847,0.004937,-0.010215,-0.043548,-92.371216,-22.056917,-76.301941,0.000000,0.000000,
0,36.118000,0.000000,0.000000,nan,0.347884,2.536640,46.510239,-0.403191,0.075972,10.015758,-0.000866,-0.016019,-0.031942,-92.918350,-21.946003,-75.844688,0.000000,0.000000,
0,36.269001,0.000000,0.000000,nan,0.466617,2.394773,46.404335,-0.320040,0.056830,10.061819,-0.006669,0.022771,-0.018350,-92.918350,-21.946003,-75.844688,0.000000,0.000000,
0,36.419998,0.000000,0.000000,nan,0.400873,2.592541,46.456940,-0.460618,0.023330,10.009775,-0.016290,0.038348,0.008681,-92.763153,-22.123117,-76.600494,0.000000,0.000000,
0,36.570999,0.000000,0.000000,nan,0.299685,2.861135,46.535763,-0.521635,0.034098,10.018748,-0.002851,0.009180,0.008681,-92.545265,-22.065685,-76.514130,0.000000,0.000000,
0,36.722000,0.000000,0.000000,nan,0.346990,2.777991,46.665016,-0.468395,0.046660,10.064810,-0.006669,-0.002427,0.022272,-92.862236,-22.452797,-76.390930,0.000000,0.000000,
0,36.873001,0.000000,0.000000,nan,0.487150,2.513056,46.971218,-0.378066,0.040080,10.040284,0.014559,-0.027778,0.059077,-92.862671,-22.452797,-76.433029,0.000000,0.000000,
0,37.023998,0.000000,0.000000,nan,0.460710,2.490345,46.987545,-0.448056,0.089133,10.027123,-0.004684,0.016968,0.014484,-92.331757,-22.101196,-76.427773,0.000000,0.000000,
0,37.174999,0.000000,0.000000,nan,0.328004,2.730300,47.203846,-0.489930,0.049053,9.993026,-0.002851,0.014983,0.031894,-92.892479,-22.222635,-76.223030,0.000000,0.000000,
0,37.326000,0.000000,0.000000,nan,0.275859,2.686450,47.450413,-0.457627,0.054437,10.044471,0.008908,-0.029610,0.032046,-92.724136,-22.120924,-76.978851,0.000000,0.000000,
0,37.477001,0.000000,0.000000,nan,0.352708,2.353423,47.850029,-0.414557,0.126820,10.023534,-0.000866,-0.010215,0.030061,-92.813576,-22.311193,-76.474678,0.000000,0.000000,
0,37.627998,0.000000,0.000000,nan,0.371038,2.231726,48.153152,-0.369691,0.021535,9.977472,-0.002851,0.005209,0.043653,-92.813576,-22.311193,-76.474678,0.000000,0.000000,
0,37.778999,0.000000,0.000000,nan,0.247584,2.468920,48.377525,-0.449851,0.037089,9.992428,0.014559,0.014983,0.045638,-93.422516,-21.554070,-76.649590,0.000000,0.000000,
0,37.930000,0.000000,0.000000,nan,0.199023,2.632424,48.659336,-0.513859,0.074776,10.031310,-0.000866,0.009180,0.049303,-92.847328,-22.173971,-76.222588,0.000000,0.000000,
0,38.081001,0.000000,0.000000,nan,0.296569,2.474095,49.112701,-0.424128,0.077767,10.059426,0.002952,-0.014033,0.047471,-92.908264,-22.501459,-76.475555,0.000000,0.000000,
0,38.231998,0.000000,0.000000,nan,0.361454,2.322948,49.456665,-0.393021,0.077767,10.046266,-0.026064,0.016968,0.055259,-92.908264,-22.501459,-76.475555,0.000000,0.000000,
0,38.382999,0.000000,0.000000,nan,0.289353,2.530265,49.872410,-0.436092,0.020339,10.012767,-0.018275,0.032392,0.035864,-93.744736,-22.080589,-76.400139,0.000000,0.000000,
0,38.534000,0.000000,0.000000,nan,0.251700,2.796678,50.207104,-0.524028,0.038883,10.060623,-0.006669,0.007347,0.018302,-93.600075,-21.841661,-75.935890,0.000000,0.000000,
0,38.685001,0.000000,0.000000,nan,0.309202,2.700239,50.460224,-0.457029,0.075972,10.049855,-0.010487,-0.016019,0.035864,-93.051628,-21.813164,-76.898186,0.000000,0.000000,
0,38.835999,0.000000,0.000000,nan,0.431774,2.430771,50.825573,-0.352343,0.043071,10.068997,0.001120,-0.008230,0.049303,-93.051628,-21.813164,-76.898186,0.000000,0.000000,
0,38.987000,0.000000,0.000000,nan,0.455187,2.523170,51.242508,-0.393619,0.010169,10.019346,-0.022093,0.020786,0.037850,-93.427780,-21.739952,-76.312897,0.000000,0.000000,
0,39.138000,0.000000,0.000000,nan,0.343677,2.709265,51.737553,-0.539581,0.062213,10.069595,0.004937,-0.002427,0.055259,-93.623306,-22.074015,-77.114311,0.000000,0.000000,
0,39.289001,0.000000,0.000000,nan,0.347687,2.623556,52.055141,-0.432503,0.056830,9.995419,-0.006669,-0.033428,0.057092,-93.920975,-21.162132,-76.907394,0.000000,0.000000,
0,39.439999,0.000000,0.000000,nan,0.392429,2.345711,52.385498,-0.351147,0.050847,10.052249,0.000967,-0.025640,0.037697,-93.902557,-21.624649,-77.159462,0.000000,0.000000,
0,39.591000,0.000000,0.000000,nan,0.362295,2.266011,52.668972,-0.401994,0.069392,10.020543,0.008908,0.030560,0.084275,-93.902557,-21.624649,-77.159462,0.000000,0.000000,
0,39.742001,0.000000,0.000000,nan,0.302963,2.517985,52.957703,-0.486341,0.038285,10.031310,0.004937,0.022771,-0.004758,-93.644783,-21.797384,-76.315094,0.000000,0.000000,
0,39.893002,0.000000,0.000000,nan,0.292506,2.692562,53.255215,-0.480957,0.075374,10.032507,-0.006669,-0.002427,0.018455,-94.502304,-21.562399,-77.418129,0.000000,0.000000,
0,40.043999,0.000000,0.000000,nan,0.314519,2.550433,53.553486,-0.426521,0.101695,9.997213,-0.008654,-0.004412,0.033879,-93.915276,-21.115664,-76.570686,0.000000,0.000000,
0,40.195000,0.000000,0.000000,nan,0.348979,2.441039,53.829258,-0.399003,0.095713,9.987044,-0.010487,0.011165,0.068698,-93.915276,-21.115664,-76.570686,0.000000,0.000000,
0,40.346001,0.000000,0.000000,nan,0.378809,2.615215,54.117496,-0.493520,0.005982,10.048658,-0.000866,0.020786,0.043500,-94.475998,-21.144161,-76.786819,0.000000,0.000000,
0,40.497002,0.000000,0.000000,nan,0.347000,2.813521,54.412403,-0.458824,0.065803,10.052249,0.016544,-0.018004,0.020287,-94.118698,-20.847801,-76.741234,0.000000,0.000000,
0,40.647999,0.000000,0.000000,nan,0.380741,2.685995,54.582523,-0.445663,0.095115,9.982258,-0.024079,-0.025793,0.004863,-94.312477,-21.321276,-76.742981,0.000000,0.000000,
0,40.799000,0.000000,0.000000,nan,0.359239,2.450232,54.780018,-0.410369,0.064008,10.051052,0.003105,0.005209,0.039682,-94.312477,-21.321276,-76.742981,0.000000,0.000000,
0,40.950001,0.000000,0.000000,nan,0.336968,2.472950,54.939659,-0.415155,0.029312,10.019346,-0.004684,0.003376,0.035864,-94.312477,-21.414217,-76.322105,0.000000,0.000000,
0,41.101002,0.000000,0.000000,nan,0.275677,2.647358,55.134666,-0.492323,0.069990,10.016954,0.016544,-0.002427,0.028076,-94.044167,-21.122240,-76.571999,0.000000,0.000000,
0,41.251999,0.000000,0.000000,nan,0.277602,2.653064,55.390926,-0.486939,0.041276,10.025329,0.001120,-0.023807,0.004863,-94.497047,-20.774586,-76.366394,0.000000,0.000000,
0,41.403000,0.000000,0.000000,nan,0.321809,2.394988,55.451195,-0.386441,0.056830,10.028918,0.012726,-0.012201,0.008681,-94.497047,-20.774586,-76.366394,0.000000,0.000000,
0,41.554001,0.000000,0.000000,nan,0.351679,2.347126,55.502018,-0.427717,0.022732,10.019346,-0.006669,0.018953,0.016469,-94.129654,-21.312508,-75.689049,0.000000,0.000000,
0,41.705002,0.000000,0.000000,nan,0.336818,2.570636,55.519421,-0.474975,-0.005982,9.978071,0.001120,0.020786,-0.000940,-94.039787,-21.168709,-75.940712,0.000000,0.000000,
0,41.855999,0.000000,0.000000,nan,0.358736,2.691373,55.667374,-0.514457,0.068794,9.990034,-0.000866,-0.010215,0.031894,-94.436981,-21.281382,-76.533859,0.000000,0.000000,
0,42.007000,0.000000,0.000000,nan,0.418396,2.542717,55.755718,-0.385843,0.046660,10.024132,0.004937,-0.016019,0.002877,-94.401474,-21.465073,-76.407150,0.000000,0.000000,
0,42.158001,0.000000,0.000000,nan,0.421748,2.457055,55.738480,-0.379262,0.032303,10.061819,0.002952,0.007194,-0.000940,-94.401474,-21.465073,-76.407150,0.000000,0.000000,
0,42.308998,0.000000,0.000000,nan,0.392296,2.603522,55.824963,-0.433699,0.087936,10.009178,-0.012472,0.014983,0.016469,-94.444435,-21.327852,-77.038895,0.000000,0.000000,
0,42.459999,0.000000,0.000000,nan,0.378884,2.823522,55.832218,-0.456431,0.074178,10.080363,0.008755,0.001391,-0.047366,-94.802612,-20.743458,-77.042839,0.000000,0.000000,
0,42.611000,0.000000,0.000000,nan,0.359019,2.691207,55.890362,-0.433699,0.037687,10.052846,0.012726,-0.019989,-0.012547,-94.379997,-20.953892,-76.659676,0.000000,0.000000,
0,42.762001,0.000000,0.000000,nan,0.370527,2.494297,55.960835,-0.379262,0.064606,10.018748,0.004937,-0.006398,-0.016365,-94.379997,-20.953892,-76.659676,0.000000,0.000000,
0,42.912998,0.000000,0.000000,nan,0.353269,2.544120,55.874249,-0.458226,0.016750,10.048658,0.010741,0.007194,0.001045,-94.892044,-20.747841,-77.380409,0.000000,0.000000,
0,43.063999,0.000000,0.000000,nan,0.300627,2.667429,55.767227,-0.502493,0.030508,10.046266,0.006923,-0.008230,-0.016517,-94.294937,-20.856569,-77.163849,0.000000,0.000000,
0,43.215000,0.000000,0.000000,nan,0.304237,2.622797,55.770584,-0.496511,0.086142,10.036097,0.002952,-0.012201,-0.041563,-93.964821,-21.164326,-76.992004,0.000000,0.000000,
0,43.366001,0.000000,0.000000,nan,0.344845,2.357642,55.815773,-0.367896,0.069392,10.036695,0.022347,-0.025793,-0.041563,-93.964821,-21.164326,-76.992004,0.000000,0.000000,
0,43.516998,0.000000,0.000000,nan,0.353827,2.351272,55.580605,-0.401396,0.077169,10.029516,-0.012472,0.032392,-0.016517,-94.860474,-21.070948,-77.001205,0.000000,0.000000,
0,43.667999,0.000000,0.000000,nan,0.306588,2.576594,55.470478,-0.431904,0.045464,10.037891,-0.006669,0.038348,0.002877,-94.220848,-21.177477,-76.826279,0.000000,0.000000,
0,43.819000,0.000000,0.000000,nan,0.296087,2.691023,55.531116,-0.454636,0.024526,10.052249,-0.000866,0.005362,0.018455,-93.747810,-21.199839,-76.568932,0.000000,0.000000,
0,43.970001,0.000000,0.000000,nan,0.323037,2.501901,55.554790,-0.372084,0.098106,10.064810,-0.006669,-0.018004,0.002877,-93.747810,-21.199839,-76.568932,0.000000,0.000000,
0,44.120998,0.000000,0.000000,nan,0.332390,2.424200,55.438187,-0.439681,-0.003589,10.009775,-0.010487,0.012997,-0.002926,-93.934128,-21.255075,-77.749123,0.000000,0.000000,
0,44.271999,0.000000,0.000000,nan,0.305540,2.594038,55.295452,-0.464208,0.079561,10.042078,0.004937,0.024757,-0.031942,-93.910019,-20.929779,-76.907394,0.000000,0.000000,
0,44.423000,0.000000,0.000000,nan,0.245907,2.696035,55.223343,-0.517448,0.043071,10.076176,-0.000866,-0.006245,-0.039730,-93.903877,-20.604485,-77.791206,0.000000,0.000000,
0,44.574001,0.000000,0.000000,nan,0.298266,2.574125,55.087429,-0.425922,0.064008,10.044471,-0.008654,-0.029610,-0.026139,-93.662758,-20.407640,-76.105545,0.000000,0.000000,
0,44.724998,0.000000,0.000000,nan,0.326873,2.369646,55.104622,-0.422333,0.080160,10.109675,0.004937,-0.002427,0.016469,-93.662758,-20.407640,-76.105545,0.000000,0.000000,
0,44.875999,0.000000,0.000000,nan,0.296625,2.396176,55.091602,-0.411566,0.053240,10.043874,-0.000866,0.020786,0.022272,-93.705284,-21.151173,-76.821014,0.000000,0.000000,
0,45.027000,0.000000,0.000000,nan,0.264170,2.557134,54.988388,-0.484547,0.054437,10.010972,-0.008654,-0.008230,0.010666,-93.836807,-21.250692,-76.653976,0.000000,0.000000,
0,45.178001,0.000000,0.000000,nan,0.260939,2.500645,54.857914,-0.460618,0.049651,9.989436,0.008755,-0.031596,-0.037745,-93.949913,-21.812727,-76.739037,0.000000,0.000000,
0,45.328999,0.000000,0.000000,nan,0.285497,2.349495,54.780178,-0.355932,0.065803,10.074981,-0.004684,-0.004412,-0.010562,-93.949913,-21.812727,-76.739037,0.000000,0.000000,
0,45.480000,0.000000,0.000000,nan,0.358657,2.333034,54.618660,-0.390030,0.096311,10.010373,-0.012472,0.034378,-0.057140,-94.142807,-21.312508,-76.951653,0.000000,0.000000,
0,45.631001,0.000000,0.000000,nan,0.304901,2.536531,54.544308,-0.491127,0.056231,10.054043,0.012573,-0.010215,-0.008729,-93.524658,-21.790808,-77.155518,0.000000,0.000000,
0,45.782001,0.000000,0.000000,nan,0.267487,2.618486,54.438175,-0.533001,0.126820,10.063614,0.008755,-0.010215,0.014484,-93.778496,-21.757488,-76.989807,0.000000,0.000000,
0,45.932999,0.000000,0.000000,nan,0.281745,2.502174,54.387581,-0.439083,0.037687,10.024731,-0.018275,0.007194,0.008681,-93.778496,-21.757488,-76.989807,0.000000,0.000000,
0,46.084000,0.000000,0.000000,nan,0.367626,2.489575,54.293194,-0.346959,0.052044,10.028319,0.004937,0.016968,-0.010714,-94.156395,-21.591333,-76.993752,0.000000,0.000000,
0,46.235001,0.000000,0.000000,nan,0.318809,2.659033,54.275719,-0.451047,0.059821,10.025329,0.001120,0.018953,0.035864,-93.511070,-21.604921,-76.692566,0.000000,0.000000,
0,46.386002,0.000000,0.000000,nan,0.269694,2.730648,54.350861,-0.503091,0.032303,10.043874,0.004937,-0.016019,0.033879,-93.255920,-21.638241,-76.732025,0.000000,0.000000,
0,46.536999,0.000000,0.000000,nan,0.264267,2.586369,54.412666,-0.391825,-0.020339,10.075578,-0.010487,-0.008230,0.008681,-93.255920,-21.638241,-76.732025,0.000000,0.000000,
0,46.688000,0.000000,0.000000,nan,0.329996,2.437209,54.408424,-0.409771,0.081954,9.999606,0.006923,0.007347,0.016469,-93.639526,-21.611498,-76.651787,0.000000,0.000000,
0,46.839001,0.000000,0.000000,nan,0.295628,2.493448,54.427490,-0.484547,0.067597,10.049855,0.001120,0.011165,0.008681,-93.853020,-21.622458,-76.527725,0.000000,0.000000,
0,46.990002,0.000000,0.000000,nan,0.267329,2.634018,54.538475,-0.474975,0.037687,10.039685,0.018376,-0.012201,-0.016517,-93.951225,-20.978445,-76.529037,0.000000,0.000000,
0,47.140999,0.000000,0.000000,nan,0.260849,2.588316,54.466614,-0.466002,0.053839,9.994222,0.004937,-0.023807,-0.004911,-93.951668,-20.978445,-76.571121,0.000000,0.000000,
0,47.292000,0.000000,0.000000,nan,0.364724,2.447726,54.588364,-0.414557,0.067597,10.045070,0.008755,-0.010215,0.006695,-93.951668,-20.978445,-76.571121,0.000000,0.000000,
0,47.443001,0.000000,0.000000,nan,0.426306,2.450107,54.700340,-0.430708,0.071186,10.020543,-0.008502,0.026589,0.035864,-93.595245,-21.655779,-76.314651,0.000000,0.000000,
0,47.594002,0.000000,0.000000,nan,0.390413,2.636323,54.798416,-0.493520,0.043071,10.036097,0.002952,0.007194,0.028076,-94.153763,-21.637802,-76.530792,0.000000,0.000000,
0,47.744999,0.000000,0.000000,nan,0.350298,2.708654,54.818607,-0.494118,0.097508,9.990633,-0.006669,-0.031596,0.047471,-94.233116,-21.502775,-76.531670,0.000000,0.000000,
0,47.896000,0.000000,0.000000,nan,0.380889,2.526078,54.873131,-0.422333,0.080758,10.035498,0.016544,-0.006398,0.028076,-94.233116,-21.502775,-76.531670,0.000000,0.000000,
0,48.047001,0.000000,0.000000,nan,0.372869,2.466991,54.863094,-0.382253,0.017348,10.025927,-0.000866,0.009180,-0.022168,-94.186653,-21.361172,-76.825836,0.000000,0.000000,
0,48.198002,0.000000,0.000000,nan,0.331182,2.606825,54.857399,-0.504886,0.071186,10.007981,0.002952,0.016968,-0.000940,-94.335709,-21.832457,-76.658798,0.000000,0.000000,
0,48.348999,0.000000,0.000000,nan,0.308364,2.717062,54.991463,-0.470190,0.069392,10.037891,-0.004684,0.007194,-0.022168,-94.305466,-21.923206,-77.458023,0.000000,0.000000,
0,48.500000,0.000000,0.000000,nan,0.337463,2.580869,55.100414,-0.406780,0.025723,10.054641,0.006770,-0.010215,0.041667,-94.305466,-21.923206,-77.458023,0.000000,0.000000,
0,48.651001,0.000000,0.000000,nan,0.376905,2.430794,55.112041,-0.427119,0.034696,10.047462,-0.000866,0.009180,0.010666,-93.662758,-21.241924,-76.441795,0.000000,0.000000,
0,48.801998,0.000000,0.000000,nan,0.356426,2.462536,55.062141,-0.482154,0.047258,10.040284,-0.010487,0.005362,0.033879,-93.978851,-21.489624,-76.865730,0.000000,0.000000,
0,48.952999,0.000000,0.000000,nan,0.319063,2.600994,55.200218,-0.464806,0.013759,10.009775,-0.000866,-0.008230,0.008833,-93.332199,-21.689096,-75.596550,0.000000,0.000000,
0,49.104000,0.000000,0.000000,nan,0.286239,2.554154,55.387642,-0.433101,0.046660,10.054043,-0.002851,-0.023807,0.051289,-93.332199,-21.689096,-75.596550,0.000000,0.000000,
0,49.255001,0.000000,0.000000,nan,0.314494,2.377036,55.436615,-0.340379,0.078365,10.059426,-0.008502,-0.002427,0.008833,-93.940262,-21.719784,-76.233986,0.000000,0.000000,
0,49.405998,0.000000,0.000000,nan,0.372567,2.404469,55.427525,-0.403789,0.046062,10.024132,0.002952,-0.000442,0.010666,-94.067406,-21.494007,-77.119133,0.000000,0.000000,
0,49.556999,0.000000,0.000000,nan,0.300138,2.567497,55.411350,-0.516850,0.043669,10.057034,-0.006669,0.020939,0.008681,-94.713608,-21.712770,-76.452324,0.000000,0.000000,
0,49.708000,0.000000,0.000000,nan,0.278919,2.616935,55.541050,-0.447458,0.028714,10.045070,-0.000866,-0.027625,0.028076,-94.400597,-21.418600,-76.533424,0.000000,0.000000,
0,49.859001,0.000000,0.000000,nan,0.325977,2.519917,55.597713,-0.392423,0.045464,10.027721,-0.012472,-0.004412,-0.024306,-94.400597,-21.418600,-76.533424,0.000000,0.000000,
0,50.009998,0.000000,0.000000,nan,0.349507,2.479134,55.681347,-0.452842,0.040080,10.070194,-0.020261,0.024757,0.035864,-94.234436,-21.456305,-76.868362,0.000000,0.000000,
0,50.160999,0.000000,0.000000,nan,0.302171,2.629130,55.808750,-0.488734,0.043669,10.042078,0.002952,0.018801,-0.010562,-93.936317,-21.673313,-76.065636,0.000000,0.000000,
0,50.312000,0.000000,0.000000,nan,0.225495,2.664908,55.787704,-0.510868,0.064008,10.014561,0.006923,-0.021822,0.059077,-94.165169,-21.870157,-76.572876,0.000000,0.000000,
0,50.463001,0.000000,0.000000,nan,0.218056,2.569106,55.886417,-0.445065,0.005384,10.074981,-0.010487,-0.019989,0.002877,-94.165169,-21.870157,-76.572876,0.000000,0.000000,
0,50.613998,0.000000,0.000000,nan,0.272859,2.399741,55.955627,-0.419342,0.072383,10.097712,0.002952,-0.000594,0.014484,-94.527290,-21.239294,-77.166039,0.000000,0.000000,
0,50.764999,0.000000,0.000000,nan,0.270381,2.458263,56.004612,-0.430708,0.080160,10.063614,0.004937,0.001391,-0.018350,-94.296700,-21.876734,-76.826714,0.000000,0.000000,
0,50.917999,0.000000,0.000000,nan,0.194229,2.569108,56.026741,-0.491725,-0.008375,10.057631,-0.006669,-0.000442,0.022272,-94.312035,-21.367748,-76.490463,0.000000,0.000000,
0,51.069000,0.000000,0.000000,nan,0.188803,2.542192,56.069359,-0.487538,0.024526,10.039685,0.002952,-0.021822,-0.022321,-94.312035,-21.367748,-76.490463,0.000000,0.000000,
0,51.220001,0.000000,0.000000,nan,0.279408,2.387719,56.136559,-0.411566,0.052044,10.061221,-0.004836,-0.019989,0.012499,-94.071350,-21.679890,-76.656166,0.000000,0.000000,
0,51.370998,0.000000,0.000000,nan,0.309409,2.423572,56.128830,-0.449851,0.034696,10.048658,-0.002851,0.013150,0.008833,-94.617172,-21.476034,-76.493530,0.000000,0.000000,
0,51.521999,0.000000,0.000000,nan,0.261749,2.560258,56.118301,-0.491725,0.049651,10.046266,0.001120,-0.004412,-0.041563,-94.367271,-21.648762,-76.406715,0.000000,0.000000,
0,51.673000,0.000000,0.000000,nan,0.240547,2.579238,56.077347,-0.430110,0.044267,10.017551,-0.002698,-0.010215,0.016469,-94.387886,-21.139776,-76.575508,0.000000,0.000000,
0,51.824001,0.000000,0.000000,nan,0.258691,2.477661,55.865559,-0.421735,0.054437,10.032507,0.003105,-0.000594,-0.004758,-94.387886,-21.139776,-76.575508,0.000000,0.000000,
0,51.974998,0.000000,0.000000,nan,0.338069,2.461646,55.813625,-0.419342,-0.009571,9.991829,0.008755,0.022771,0.010666,-93.934563,-21.301546,-77.580765,0.000000,0.000000,
0,52.125999,0.000000,0.000000,nan,0.280300,2.601795,55.762558,-0.494716,0.031107,10.044471,0.006923,0.013150,-0.026139,-93.860039,-20.927588,-76.233551,0.000000,0.000000,
0,52.277000,0.000000,0.000000,nan,0.263236,2.696932,55.608990,-0.457627,0.087936,10.033106,0.014559,-0.010215,-0.022321,-94.100281,-21.542669,-75.941147,0.000000,0.000000,
0,52.428001,0.000000,0.000000,nan,0.318052,2.583600,55.552280,-0.474975,0.073579,10.059426,0.012573,-0.012048,-0.006744,-94.100281,-21.542669,-75.941147,0.000000,0.000000,
0,52.578999,0.000000,0.000000,nan,0.386074,2.471758,55.582104,-0.428913,0.050249,10.028319,0.014559,0.003376,0.022272,-93.717560,-21.522942,-76.315971,0.000000,0.000000,
0,52.730000,0.000000,0.000000,nan,0.348959,2.539296,55.560238,-0.473779,0.032901,10.040284,-0.020108,0.007347,-0.002926,-93.725006,-21.755295,-75.979271,0.000000,0.000000,
0,52.881001,0.000000,0.000000,nan,0.297515,2.631553,55.541386,-0.496511,0.032901,9.998409,-0.006669,0.014983,-0.031942,-93.909134,-21.764063,-77.159462,0.000000,0.000000,
0,53.032001,0.000000,0.000000,nan,0.326655,2.603236,55.542271,-0.426521,0.066999,10.071390,0.014559,-0.025793,0.045485,-93.909134,-21.764063,-77.159462,0.000000,0.000000,
0,53.182999,0.000000,0.000000,nan,0.396452,2.438581,55.589306,-0.391825,0.081954,10.055838,0.008908,-0.018004,-0.029957,-94.194542,-21.639994,-76.320793,0.000000,0.000000,
0,53.334000,0.000000,0.000000,nan,0.365230,2.472599,55.526836,-0.421735,0.109472,10.007382,0.001120,0.016968,-0.012547,-94.632950,-21.940742,-75.904312,0.000000,0.000000,
0,53.485001,0.000000,0.000000,nan,0.320748,2.660047,55.447338,-0.425324,0.028116,9.979865,0.020362,-0.000442,-0.037745,-94.059074,-21.540478,-76.109047,0.000000,0.000000,
0,53.636002,0.000000,0.000000,nan,0.329591,2.667169,55.341625,-0.512064,0.040080,10.007981,-0.002851,-0.012048,-0.022321,-94.059074,-21.540478,-76.109047,0.000000,0.000000,
0,53.786999,0.000000,0.000000,nan,0.324405,2.532882,55.292973,-0.423530,0.026919,10.003794,-0.004684,-0.002427,-0.004758,-94.410675,-21.650953,-76.449249,0.000000,0.000000,
0,53.938000,0.000000,0.000000,nan,0.330338,2.528550,55.235092,-0.369691,0.119641,10.019346,0.001120,0.018953,0.001045,-94.754379,-21.668489,-76.452759,0.000000,0.000000,
0,54.089001,0.000000,0.000000,nan,0.323174,2.613746,55.243565,-0.477368,0.057428,10.001998,-0.008654,-0.000594,-0.020335,-93.872314,-21.252884,-75.938957,0.000000,0.000000,
0,54.240002,0.000000,0.000000,nan,0.315673,2.674700,55.262993,-0.446261,0.062812,10.052846,0.022347,-0.012201,-0.014532,-93.849953,-21.436577,-77.074860,0.000000,0.000000,
0,54.390999,0.000000,0.000000,nan,0.355514,2.591963,55.327206,-0.423530,0.079561,10.068997,-0.002851,0.009180,0.033879,-93.849953,-21.436577,-77.074860,0.000000,0.000000,
0,54.542000,0.000000,0.000000,nan,0.405132,2.463408,55.323742,-0.397807,0.072383,10.031310,-0.002851,-0.006245,-0.008729,-93.900368,-21.624649,-76.949028,0.000000,0.000000,
0,54.693001,0.000000,0.000000,nan,0.429821,2.517763,55.333942,-0.451047,0.053240,10.026525,0.010741,0.007347,0.026243,-93.891167,-21.578180,-76.275635,0.000000,0.000000,
0,54.844002,0.000000,0.000000,nan,0.399161,2.654942,55.364929,-0.416949,0.032303,10.005588,0.012726,-0.008230,-0.022321,-94.021378,-21.631226,-76.192780,0.000000,0.000000,
0,54.994999,0.000000,0.000000,nan,0.349927,2.575665,55.481106,-0.452842,0.038883,10.021739,0.008755,-0.000594,-0.006744,-94.021378,-21.631226,-76.192780,0.000000,0.000000,
0,55.146000,0.000000,0.000000,nan,0.378846,2.436249,55.559547,-0.397209,0.073579,10.025329,0.001120,0.001391,0.031894,-93.887657,-21.438768,-76.570244,0.000000,0.000000,
0,55.297001,0.000000,0.000000,nan,0.340965,2.453630,55.580727,-0.467199,0.074776,10.028319,0.001120,0.014983,0.049303,-93.749565,-21.385721,-75.895538,0.000000,0.000000,
0,55.448002,0.000000,0.000000,nan,0.286814,2.596817,55.600445,-0.472582,0.052642,10.048658,-0.002698,-0.004412,-0.016517,-93.493095,-21.279627,-76.440048,0.000000,0.000000,
0,55.598999,0.000000,0.000000,nan,0.300351,2.634622,55.607471,-0.361914,0.074178,10.016954,-0.000866,-0.019989,-0.008729,-93.493095,-21.279627,-76.440048,0.000000,0.000000,
0,55.750000,0.000000,0.000000,nan,0.357658,2.539893,55.672207,-0.413360,0.044267,10.006186,0.002952,0.003376,0.016469,-93.956055,-21.071386,-76.571121,0.000000,0.000000,
0,55.901001,0.000000,0.000000,nan,0.365776,2.545267,55.695614,-0.421137,0.043071,10.080962,-0.002851,0.022771,-0.006744,-94.457588,-21.653147,-76.828468,0.000000,0.000000,
0,56.051998,0.000000,0.000000,nan,0.292444,2.641140,55.640949,-0.451645,-0.014955,10.046266,0.001120,-0.008230,-0.008729,-93.962189,-21.257269,-76.318596,0.000000,0.000000,
0,56.202999,0.000000,0.000000,nan,0.255428,2.640179,55.607563,-0.437288,0.005384,10.036097,0.000967,-0.014033,-0.033927,-93.962189,-21.257269,-76.318596,0.000000,0.000000,
0,56.354000,0.000000,0.000000,nan,0.272813,2.541960,55.608482,-0.453440,0.056830,10.018748,0.004937,-0.002427,-0.002926,-94.355873,-21.509352,-75.943779,0.000000,0.000000,
0,56.505001,0.000000,0.000000,nan,0.334448,2.481093,55.636929,-0.395414,0.064008,10.045668,-0.002851,0.012997,0.049303,-94.091949,-21.124432,-77.035385,0.000000,0.000000,
0,56.655998,0.000000,0.000000,nan,0.340772,2.534990,55.599415,-0.458226,0.056830,10.010972,-0.004684,0.016968,0.020287,-94.543076,-21.425177,-77.839432,0.000000,0.000000,
0,56.806999,0.000000,0.000000,nan,0.341395,2.643412,55.709461,-0.483350,0.053240,10.030114,0.014559,-0.008230,-0.010562,-94.419014,-21.558014,-77.669762,0.000000,0.000000,
0,56.958000,0.000000,0.000000,nan,0.382046,2.567111,55.692509,-0.426521,0.090329,10.057631,-0.012472,-0.010215,0.001045,-94.419014,-21.558014,-77.669762,0.000000,0.000000,
0,57.109001,0.000000,0.000000,nan,0.412933,2.459521,55.775467,-0.421137,0.072981,10.024731,-0.018275,-0.006398,-0.014532,-94.266006,-21.179670,-77.037140,0.000000,0.000000,
0,57.259998,0.000000,0.000000,nan,0.351711,2.517624,55.840431,-0.452842,0.005384,10.080363,-0.014458,0.014983,-0.010714,-94.515450,-20.867529,-77.713173,0.000000,0.000000,
0,57.410999,0.000000,0.000000,nan,0.273292,2.633662,55.933815,-0.502493,0.048455,10.026525,0.001120,-0.002427,0.008681,-94.294060,-21.830265,-76.784630,0.000000,0.000000,
0,57.562000,0.000000,0.000000,nan,0.266650,2.616368,55.930653,-0.489930,0.064008,10.025329,-0.012472,-0.004412,0.004863,-94.294060,-21.830265,-76.784630,0.000000,0.000000,
0,57.713001,0.000000,0.000000,nan,0.242485,2.508114,55.837254,-0.419342,0.056231,10.060623,-0.012472,0.007194,0.016469,-94.153320,-21.405449,-77.540871,0.000000,0.000000,
0,57.863998,0.000000,0.000000,nan,0.250237,2.502784,55.910225,-0.419940,0.057428,10.020543,-0.010487,0.007194,-0.010562,-94.003395,-21.861389,-77.539124,0.000000,0.000000,
0,58.014999,0.000000,0.000000,nan,0.242954,2.614197,55.963669,-0.417548,0.073579,10.058230,0.008755,-0.000594,-0.020335,-94.257668,-21.967484,-76.784195,0.000000,0.000000,
0,58.166000,0.000000,0.000000,nan,0.304988,2.614946,55.890900,-0.504886,0.061615,10.045070,0.001120,-0.014033,-0.020335,-94.257668,-21.967484,-76.784195,0.000000,0.000000,
