segment,time,throttle,vane,rpm,roll,pitch,yaw,accelx,accely,accelz,gx,gy,gz,magx,magy,magz,encoderGamma,encoderBeta,
0,5.523000,0.000000,0.000000,nan,0.643386,-2.891141,4.387838,-0.188435,-0.011366,10.037891,-0.000713,-0.000594,0.007001,-107.150696,-19.987211,-68.668884,0.000000,0.000000,
0,5.584000,0.000000,0.000000,nan,0.305641,-2.583037,4.367786,-0.131007,-0.037089,10.109077,0.016544,0.003224,0.020440,-107.150696,-19.987211,-68.668884,0.000000,0.000000,
0,5.645000,0.000000,0.000000,nan,0.127222,-2.409498,4.269392,-0.191426,0.029910,10.051650,0.008908,0.003376,0.032046,-107.150696,-19.987211,-68.668884,0.000000,0.000000,
0,5.706000,0.000000,0.000000,nan,0.052237,-2.244259,4.271465,-0.162114,0.014955,10.032507,0.014559,0.003224,0.022425,-106.947281,-19.281380,-68.793404,0.000000,0.000000,
0,5.767000,0.000000,0.000000,nan,-0.010049,-2.083499,4.262209,-0.193819,0.020339,10.063614,-0.000713,-0.012201,-0.024001,-106.947281,-19.281380,-68.793404,0.000000,0.000000,
0,5.828000,0.000000,0.000000,nan,-0.061174,-1.947652,4.331047,-0.156132,0.009571,10.037891,-0.002698,0.005209,0.008833,-106.947281,-19.281380,-68.793404,0.000000,0.000000,
0,5.889000,0.000000,0.000000,nan,-0.103082,-1.859430,4.290409,-0.194417,-0.020339,10.044471,0.008908,-0.004412,-0.008576,-106.947281,-19.281380,-68.793404,0.000000,0.000000,
0,5.950000,0.000000,0.000000,nan,-0.128331,-1.695647,4.348872,-0.202792,-0.023330,10.000204,-0.002698,-0.014186,0.020440,-106.978409,-19.839033,-69.256355,0.000000,0.000000,
0,6.011000,0.000000,0.000000,nan,-0.160710,-1.592240,4.398561,-0.203390,-0.027517,10.077372,0.005090,-0.008383,0.034032,-106.978409,-19.839033,-69.256355,0.000000,0.000000,
0,6.072000,0.000000,0.000000,nan,-0.158721,-1.545791,4.403299,-0.175872,0.005384,10.022338,-0.035532,0.011012,0.005016,-106.978409,-19.839033,-69.256355,0.000000,0.000000,
0,6.133000,0.000000,0.000000,nan,-0.171028,-1.441525,4.413240,-0.229711,0.023330,10.003196,-0.008502,-0.006398,0.026396,-107.173943,-19.664108,-68.248459,0.000000,0.000000,
0,6.194000,0.000000,0.000000,nan,-0.201551,-1.345973,4.375012,-0.169292,-0.035294,10.071390,0.003105,-0.006398,-0.008576,-107.173943,-19.664108,-68.248459,0.000000,0.000000,
0,6.255000,0.000000,0.000000,nan,-0.213629,-1.269299,4.397190,-0.162114,0.031705,10.055838,0.006923,0.012997,-0.020183,-107.173943,-19.664108,-68.248459,0.000000,0.000000,
0,6.316000,0.000000,0.000000,nan,-0.199500,-1.179248,4.369791,-0.212363,0.006580,10.061221,-0.002698,0.014983,0.016622,-106.605331,-19.403257,-68.326935,0.000000,0.000000,
0,6.377000,0.000000,0.000000,nan,-0.206860,-1.117240,4.423060,-0.192024,-0.008973,10.041480,-0.000713,0.001238,-0.039578,-106.605331,-19.403257,-68.326935,0.000000,0.000000,
0,6.438000,0.000000,0.000000,nan,-0.229330,-1.038294,4.395733,-0.178863,-0.007777,10.063614,-0.006669,0.011012,0.012804,-106.605331,-19.403257,-68.326935,0.000000,0.000000,
0,6.499000,0.000000,0.000000,nan,-0.248956,-0.949426,4.365235,-0.231506,-0.007178,10.055838,-0.014305,0.012997,0.030214,-107.516769,-19.588703,-68.588661,0.000000,0.000000,
0,6.560000,0.000000,0.000000,nan,-0.230914,-0.908044,4.416161,-0.175274,-0.061615,10.066606,-0.014305,-0.004565,-0.002773,-107.516769,-19.588703,-68.588661,0.000000,0.000000,
0,6.621000,0.000000,0.000000,nan,-0.191167,-0.874683,4.391917,-0.145962,-0.025723,9.995419,0.018529,0.005209,0.010819,-107.516769,-19.588703,-68.588661,0.000000,0.000000,
0,6.682000,0.000000,0.000000,nan,-0.165899,-0.802436,4.354993,-0.188435,-0.047258,10.030114,-0.002698,-0.031596,-0.006744,-107.516769,-19.588703,-68.588661,0.000000,0.000000,
0,6.743000,0.000000,0.000000,nan,-0.129392,-0.752381,4.354915,-0.256630,-0.029312,9.985249,0.004937,-0.031596,0.014637,-106.684669,-20.102510,-68.664062,0.000000,0.000000,
0,6.804000,0.000000,0.000000,nan,-0.161164,-0.706273,4.408342,-0.165105,-0.027517,10.055838,-0.014305,-0.000594,-0.006591,-106.684669,-20.102510,-68.664062,0.000000,0.000000,
0,6.865000,0.000000,0.000000,nan,-0.164717,-0.658272,4.491127,-0.163908,-0.028116,10.022936,0.010741,-0.010215,-0.037592,-106.684669,-20.102510,-68.664062,0.000000,0.000000,
0,6.926000,0.000000,0.000000,nan,-0.208096,-0.592563,4.481091,-0.156730,0.003589,10.039685,0.014711,-0.004412,0.008833,-106.507126,-19.861389,-69.167358,0.000000,0.000000,
0,6.987000,0.000000,0.000000,nan,-0.176852,-0.513643,4.394793,-0.175274,0.022732,10.037891,0.001120,0.016968,0.018607,-106.507126,-19.861389,-69.167358,0.000000,0.000000,
0,7.048000,0.000000,0.000000,nan,-0.145806,-0.456727,4.397202,-0.186042,-0.020937,10.031310,0.003105,0.001391,-0.004606,-106.507126,-19.861389,-69.167358,0.000000,0.000000,
0,7.109000,0.000000,0.000000,nan,-0.149274,-0.378176,4.369462,-0.156730,-0.037089,10.041480,-0.004684,-0.002580,0.003030,-107.298447,-19.577744,-68.249779,0.000000,0.000000,
0,7.170000,0.000000,0.000000,nan,-0.158618,-0.334245,4.359789,-0.198006,-0.008375,10.014561,-0.010487,0.011012,0.028228,-107.298447,-19.577744,-68.249779,0.000000,0.000000,
0,7.231000,0.000000,0.000000,nan,-0.097800,-0.329232,4.301098,-0.154337,0.010169,10.045070,-0.002698,-0.000594,0.020440,-107.298447,-19.577744,-68.249779,0.000000,0.000000,
0,7.292000,0.000000,0.000000,nan,-0.098750,-0.267031,4.420012,-0.199202,0.003589,10.051052,0.006923,0.005209,-0.014379,-107.205505,-20.128817,-69.174377,0.000000,0.000000,
0,7.353000,0.000000,0.000000,nan,-0.141461,-0.239885,4.348719,-0.192024,-0.016152,10.044471,-0.004684,-0.006398,0.024410,-107.205505,-20.128817,-69.174377,0.000000,0.000000,
0,7.414000,0.000000,0.000000,nan,-0.081569,-0.264887,4.492986,-0.133998,-0.020937,10.060025,0.010893,0.001391,0.005016,-107.205505,-20.128817,-69.174377,0.000000,0.000000,
0,7.475000,0.000000,0.000000,nan,-0.072608,-0.231554,4.461690,-0.149551,-0.017946,10.064212,0.024332,0.007194,-0.004606,-107.132729,-19.754856,-67.995499,0.000000,0.000000,
0,7.536000,0.000000,0.000000,nan,-0.079074,-0.180050,4.456873,-0.165703,-0.042473,10.046266,-0.012320,0.012997,0.005016,-107.132729,-19.754856,-67.995499,0.000000,0.000000,
0,7.597000,0.000000,0.000000,nan,-0.101539,-0.152163,4.445453,-0.166301,-0.001795,9.998409,-0.010487,0.011012,0.030061,-107.132729,-19.754856,-67.995499,0.000000,0.000000,
0,7.658000,0.000000,0.000000,nan,-0.112539,-0.073542,4.483705,-0.230309,0.014955,10.016356,-0.027897,-0.012201,-0.020183,-107.132729,-19.754856,-67.995499,0.000000,0.000000,
0,7.719000,0.000000,0.000000,nan,-0.138327,-0.050983,4.499248,-0.220140,-0.019143,10.021142,-0.000713,-0.012201,-0.025986,-106.162979,-19.936794,-68.700905,0.000000,0.000000,
0,7.780000,0.000000,0.000000,nan,-0.148058,-0.023489,4.480185,-0.197408,-0.039482,10.016356,0.001120,0.001391,-0.006591,-106.162979,-19.936794,-68.700905,0.000000,0.000000,
0,7.841000,0.000000,0.000000,nan,-0.194053,0.042537,4.541502,-0.217747,-0.020937,9.997213,0.001120,-0.000594,-0.002773,-106.162979,-19.936794,-68.700905,0.000000,0.000000,
0,7.902000,0.000000,0.000000,nan,-0.212142,0.117373,4.555950,-0.187238,-0.010169,10.066007,0.006923,-0.000594,-0.037592,-106.531235,-19.677698,-68.199799,0.000000,0.000000,
0,7.963000,0.000000,0.000000,nan,-0.173649,0.163024,4.448811,-0.195613,0.004786,10.021142,-0.008502,0.007194,0.049609,-106.531235,-19.677698,-68.199799,0.000000,0.000000,
0,8.024000,0.000000,0.000000,nan,-0.195619,0.186441,4.530877,-0.218943,-0.010169,10.064810,-0.000713,0.003224,0.014637,-106.531235,-19.677698,-68.199799,0.000000,0.000000,
0,8.085000,0.000000,0.000000,nan,-0.204946,0.201031,4.534678,-0.181855,-0.055633,10.033704,0.006923,-0.000594,-0.004758,-106.666702,-19.684273,-68.832405,0.000000,0.000000,
0,8.146000,0.000000,0.000000,nan,-0.180041,0.234222,4.602347,-0.189631,-0.003589,10.034901,0.010741,0.009180,-0.006591,-106.666702,-19.684273,-68.832405,0.000000,0.000000,
0,8.207000,0.000000,0.000000,nan,-0.187071,0.264808,4.609560,-0.124427,0.015553,9.982258,-0.018123,-0.016171,-0.012394,-106.666702,-19.684273,-68.832405,0.000000,0.000000,
0,8.268000,0.000000,0.000000,nan,-0.146315,0.283054,4.592703,-0.185444,-0.039482,10.044471,-0.023926,0.014830,0.012804,-107.557976,-20.425177,-68.757004,0.000000,0.000000,
0,8.329000,0.000000,0.000000,nan,-0.170098,0.337626,4.619691,-0.194417,-0.012562,10.051052,0.003105,0.007194,-0.006591,-107.557976,-20.425177,-68.757004,0.000000,0.000000,
0,8.390000,0.000000,0.000000,nan,-0.132218,0.349495,4.620226,-0.171685,0.018544,10.060025,0.003105,0.005209,0.034032,-107.557976,-20.425177,-68.757004,0.000000,0.000000,
0,8.451000,0.000000,0.000000,nan,-0.112676,0.390064,4.603673,-0.198604,-0.045464,10.081559,0.003105,-0.000594,-0.008576,-107.557976,-20.425177,-68.757004,0.000000,0.000000,
0,8.512000,0.000000,0.000000,nan,-0.112265,0.396857,4.566129,-0.200997,-0.034696,10.067204,0.001120,0.009027,0.030214,-107.200241,-20.128817,-68.669327,0.000000,0.000000,
0,8.573000,0.000000,0.000000,nan,-0.098059,0.485415,4.547223,-0.178863,-0.016750,10.085150,-0.000866,-0.000594,0.008833,-107.200241,-20.128817,-68.669327,0.000000,0.000000,
0,8.634000,0.000000,0.000000,nan,-0.064639,0.478076,4.438457,-0.156132,-0.053240,9.984053,-0.004684,0.001391,-0.004606,-107.200241,-20.128817,-68.669327,0.000000,0.000000,
0,8.695000,0.000000,0.000000,nan,-0.071814,0.475860,4.417439,-0.153739,0.034696,10.039685,0.016544,-0.010368,-0.010409,-106.707031,-19.639996,-68.790771,0.000000,0.000000,
0,8.756000,0.000000,0.000000,nan,-0.105601,0.529369,4.407700,-0.234497,-0.011366,10.034302,-0.008502,-0.000594,0.007001,-106.707031,-19.639996,-68.790771,0.000000,0.000000,
0,8.817000,0.000000,0.000000,nan,-0.080838,0.529738,4.388563,-0.204586,0.002393,10.063614,-0.000866,0.005209,0.034032,-106.707031,-19.639996,-68.790771,0.000000,0.000000,
0,8.878000,0.000000,0.000000,nan,-0.060478,0.563514,4.358957,-0.180060,0.005384,10.034302,0.001120,-0.004565,0.010819,-106.776306,-20.385719,-67.949471,0.000000,0.000000,
0,8.939000,0.000000,0.000000,nan,-0.056428,0.556976,4.372727,-0.204586,-0.016750,9.985847,-0.004684,0.011012,-0.041410,-106.776306,-20.385719,-67.949471,0.000000,0.000000,
0,9.000000,0.000000,0.000000,nan,-0.005774,0.627360,4.388911,-0.166899,-0.044865,10.046266,-0.018123,-0.004565,0.001045,-106.776306,-20.385719,-67.949471,0.000000,0.000000,
0,9.061000,0.000000,0.000000,nan,0.002861,0.643085,4.381918,-0.166899,-0.002393,10.045668,0.014559,-0.000594,0.005016,-106.161224,-19.983267,-68.322113,0.000000,0.000000,
0,9.122000,0.000000,0.000000,nan,0.025345,0.651025,4.394256,-0.175274,0.001196,10.041480,-0.002698,-0.004565,0.010819,-106.161224,-19.983267,-68.322113,0.000000,0.000000,
0,9.183000,0.000000,0.000000,nan,0.088588,0.641268,4.454618,-0.148953,0.013759,10.032507,-0.022093,-0.000594,-0.006591,-106.161224,-19.983267,-68.322113,0.000000,0.000000,
0,9.244000,0.000000,0.000000,nan,0.046906,0.731774,4.525036,-0.193819,0.021535,10.024132,0.005090,0.007194,0.016622,-106.161224,-19.983267,-68.322113,0.000000,0.000000,
0,9.305000,0.000000,0.000000,nan,0.055050,0.750713,4.595305,-0.212363,-0.026321,10.001998,-0.006669,0.022771,-0.029957,-106.490463,-20.416847,-69.166924,0.000000,0.000000,
0,9.366000,0.000000,0.000000,nan,0.036958,0.783536,4.578969,-0.175872,-0.034696,9.998409,-0.008502,-0.002580,-0.018197,-106.490463,-20.416847,-69.166924,0.000000,0.000000,
0,9.427000,0.000000,0.000000,nan,0.011737,0.774444,4.501646,-0.146560,0.005982,9.988240,0.012726,0.014830,0.028228,-106.490463,-20.416847,-69.166924,0.000000,0.000000,
0,9.488000,0.000000,0.000000,nan,-0.011095,0.784735,4.514635,-0.212961,0.007178,10.033704,0.012726,-0.000594,-0.000788,-106.694321,-20.381336,-68.327370,0.000000,0.000000,
0,9.549000,0.000000,0.000000,nan,-0.021815,0.791536,4.499467,-0.215354,-0.020339,10.046865,-0.002698,0.014983,0.003030,-106.694321,-20.381336,-68.327370,0.000000,0.000000,
0,9.610000,0.000000,0.000000,nan,0.022571,0.812855,4.489492,-0.212961,-0.006580,10.075578,0.004937,0.007194,0.016622,-106.694321,-20.381336,-68.327370,0.000000,0.000000,
0,9.671000,0.000000,0.000000,nan,0.041851,0.840411,4.544895,-0.125623,-0.015553,10.048658,0.026165,-0.025793,-0.024001,-106.535614,-20.419039,-69.377785,0.000000,0.000000,
0,9.732000,0.000000,0.000000,nan,0.067363,0.820206,4.551330,-0.186042,0.006580,10.033704,0.003105,-0.008383,-0.016365,-106.535614,-20.419039,-69.377785,0.000000,0.000000,
0,9.793000,0.000000,0.000000,nan,0.036204,0.807484,4.470850,-0.172881,-0.013759,10.020543,-0.020108,0.009027,0.026243,-106.535614,-20.419039,-69.377785,0.000000,0.000000,
0,9.854000,0.000000,0.000000,nan,0.014171,0.815651,4.567373,-0.198604,-0.013161,10.087543,-0.012320,0.001238,0.016622,-106.774551,-20.153366,-68.833282,0.000000,0.000000,
0,9.915000,0.000000,0.000000,nan,0.016744,0.805556,4.513078,-0.199801,0.013161,10.034901,-0.004684,0.007194,0.018607,-106.774551,-20.153366,-68.833282,0.000000,0.000000,
0,9.976000,0.000000,0.000000,nan,0.022811,0.807950,4.578003,-0.185444,0.008973,10.040284,0.024332,0.001391,-0.006591,-106.774551,-20.153366,-68.833282,0.000000,0.000000,
0,10.037000,0.000000,0.000000,nan,0.006926,0.806921,4.620128,-0.139382,-0.026919,10.048658,-0.000866,-0.002580,0.034032,-106.774551,-20.153366,-68.833282,0.000000,0.000000,
0,10.098000,0.000000,0.000000,nan,-0.023997,0.815685,4.607592,-0.157328,-0.034098,9.978669,0.008908,0.003224,-0.010562,-106.746933,-19.642187,-68.496605,0.000000,0.000000,
0,10.159000,0.000000,0.000000,nan,-0.040743,0.851624,4.414667,-0.195015,-0.013759,10.013365,0.008908,-0.004565,0.051441,-106.746933,-19.642187,-68.496605,0.000000,0.000000,
0,10.220000,0.000000,0.000000,nan,-0.086688,0.900023,4.495777,-0.151944,-0.019143,10.026525,-0.002698,-0.014186,-0.024001,-106.746933,-19.642187,-68.496605,0.000000,0.000000,
0,10.281000,0.000000,0.000000,nan,-0.076669,0.918905,4.533051,-0.137587,-0.003589,10.033106,0.001120,0.007194,-0.014379,-106.489586,-19.629034,-68.536057,0.000000,0.000000,
0,10.342000,0.000000,0.000000,nan,-0.085452,0.978203,4.549786,-0.189033,-0.039482,10.057631,-0.002698,-0.004565,0.007001,-106.489586,-19.629034,-68.536057,0.000000,0.000000,
0,10.403000,0.000000,0.000000,nan,-0.029568,0.985402,4.704986,-0.172881,0.011366,10.057034,-0.020108,0.007194,-0.016212,-106.489586,-19.629034,-68.536057,0.000000,0.000000,
0,10.464000,0.000000,0.000000,nan,-0.028929,1.031272,4.722455,-0.158524,-0.019741,10.059426,0.016544,0.003376,0.001198,-106.502739,-19.861389,-68.746483,0.000000,0.000000,
0,10.525000,0.000000,0.000000,nan,-0.015372,1.085304,4.702449,-0.170489,-0.017946,10.033106,-0.004684,-0.006398,0.010819,-106.502739,-19.861389,-68.746483,0.000000,0.000000,
0,10.586000,0.000000,0.000000,nan,-0.015893,1.057312,4.774370,-0.179462,0.007777,10.016954,-0.018123,0.014983,-0.000788,-106.502739,-19.861389,-68.746483,0.000000,0.000000,
0,10.647000,0.000000,0.000000,nan,0.000179,1.044142,4.769662,-0.164507,0.016750,10.028319,0.006923,0.007194,0.026243,-106.368156,-20.503216,-69.376030,0.000000,0.000000,
0,10.708000,0.000000,0.000000,nan,-0.005977,1.054129,4.850539,-0.162114,0.035294,10.023534,0.014559,-0.004412,-0.024153,-106.368156,-20.503216,-69.376030,0.000000,0.000000,
0,10.769000,0.000000,0.000000,nan,-0.042745,1.074721,4.745053,-0.198604,-0.031705,10.016954,-0.008502,-0.000594,0.032046,-106.368156,-20.503216,-69.376030,0.000000,0.000000,
0,10.830000,0.000000,0.000000,nan,-0.016281,1.077106,4.885856,-0.207577,-0.033500,10.057034,-0.006669,-0.000594,-0.020183,-106.183144,-19.427807,-68.827583,0.000000,0.000000,
0,10.891000,0.000000,0.000000,nan,-0.073192,1.097348,4.937907,-0.156730,0.028116,10.021142,-0.006516,0.007041,-0.014379,-106.183144,-19.427807,-68.827583,0.000000,0.000000,
0,10.952000,0.000000,0.000000,nan,-0.116337,1.079444,4.920866,-0.183051,-0.013759,10.095320,-0.014305,0.003224,0.043805,-106.183144,-19.427807,-68.827583,0.000000,0.000000,
0,11.013000,0.000000,0.000000,nan,-0.104125,1.119234,5.052401,-0.140578,-0.015553,10.008579,-0.000713,0.005209,-0.022168,-106.183144,-19.427807,-68.827583,0.000000,0.000000,
0,11.074000,0.000000,0.000000,nan,-0.105613,1.087069,5.113120,-0.194417,-0.028116,10.100702,0.008908,-0.000594,-0.035607,-106.277405,-19.664545,-68.575951,0.000000,0.000000,
0,11.135000,0.000000,0.000000,nan,-0.119725,1.046422,5.114592,-0.168694,-0.031107,10.021142,0.006923,0.007194,-0.020183,-106.277405,-19.664545,-68.575951,0.000000,0.000000,
0,11.196000,0.000000,0.000000,nan,-0.139486,0.997498,5.030238,-0.193220,-0.047856,10.023534,-0.010487,0.001391,0.020440,-106.277405,-19.664545,-68.575951,0.000000,0.000000,
0,11.257000,0.000000,0.000000,nan,-0.138417,1.039518,5.021034,-0.218345,-0.032303,10.085150,0.006923,0.011012,-0.012394,-106.301949,-20.036314,-69.249336,0.000000,0.000000,
0,11.318000,0.000000,0.000000,nan,-0.140872,1.050736,4.951414,-0.177069,0.005982,10.011570,0.012726,-0.006398,-0.000788,-106.301949,-20.036314,-69.249336,0.000000,0.000000,
0,11.379000,0.000000,0.000000,nan,-0.120888,1.048723,4.955801,-0.201595,0.016750,10.034302,0.003105,0.007194,-0.004758,-106.301949,-20.036314,-69.249336,0.000000,0.000000,
0,11.440000,0.000000,0.000000,nan,-0.084269,1.071957,4.966603,-0.151944,-0.008375,10.025329,0.008908,-0.004412,-0.010409,-106.096329,-20.350647,-68.657928,0.000000,0.000000,
0,11.501000,0.000000,0.000000,nan,-0.080865,1.074949,5.030560,-0.202792,0.004187,9.993624,-0.010487,0.011012,0.018607,-106.096329,-20.350647,-68.657928,0.000000,0.000000,
0,11.562000,0.000000,0.000000,nan,-0.057374,1.067069,5.011835,-0.172881,0.040678,10.050453,-0.008502,0.003224,0.014637,-106.096329,-20.350647,-68.657928,0.000000,0.000000,
0,11.626000,0.000000,0.000000,nan,-0.039175,1.067571,5.029290,-0.171685,0.013161,10.086945,-0.004684,-0.002580,0.001198,-106.933250,-19.743896,-69.466339,0.000000,0.000000,
0,11.687000,0.000000,0.000000,nan,-0.031874,1.036736,5.004384,-0.224925,-0.005384,10.074382,0.002952,0.011012,0.020440,-106.933250,-19.743896,-69.466339,0.000000,0.000000,
0,11.748000,0.000000,0.000000,nan,-0.043324,1.045526,5.100133,-0.124427,0.038883,10.038489,0.008908,0.020786,-0.047366,-106.933250,-19.743896,-69.466339,0.000000,0.000000,
0,11.809000,0.000000,0.000000,nan,-0.012929,1.074586,5.131816,-0.212961,0.001795,10.046266,-0.004684,0.003224,-0.004758,-106.933250,-19.743896,-69.466339,0.000000,0.000000,
0,11.870000,0.000000,0.000000,nan,-0.047547,1.070160,5.123694,-0.186640,0.008973,10.040284,-0.008502,-0.004565,-0.014379,-107.068726,-20.029301,-68.836349,0.000000,0.000000,
0,11.931000,0.000000,0.000000,nan,-0.022705,1.062461,5.105371,-0.181855,-0.019143,10.046266,-0.006516,-0.000594,0.016622,-107.068726,-20.029301,-68.836349,0.000000,0.000000,
0,11.992000,0.000000,0.000000,nan,-0.024409,1.002714,5.053251,-0.169292,0.017946,10.113863,0.022347,-0.019989,-0.016365,-107.068726,-20.029301,-68.836349,0.000000,0.000000,
0,12.053000,0.000000,0.000000,nan,-0.019769,1.025472,5.116476,-0.182453,0.009571,10.015160,-0.004684,-0.000594,0.001045,-106.741661,-20.383528,-68.748672,0.000000,0.000000,
0,12.114000,0.000000,0.000000,nan,-0.039367,1.063015,5.104252,-0.172283,-0.020339,10.048061,-0.000713,-0.004565,0.003030,-106.741661,-20.383528,-68.748672,0.000000,0.000000,
0,12.175000,0.000000,0.000000,nan,-0.012052,1.069664,5.102548,-0.215952,-0.009571,10.055838,0.001120,0.005209,0.005016,-106.741661,-20.383528,-68.748672,0.000000,0.000000,
0,12.236000,0.000000,0.000000,nan,-0.026489,1.096291,5.140081,-0.245264,-0.049053,10.083356,-0.000713,0.012997,-0.010409,-106.323441,-19.852621,-68.029251,0.000000,0.000000,
0,12.297000,0.000000,0.000000,nan,-0.030599,1.071078,5.124518,-0.203390,-0.000598,10.063016,-0.002698,-0.006398,-0.002773,-106.323441,-19.852621,-68.029251,0.000000,0.000000,
0,12.358000,0.000000,0.000000,nan,-0.010812,1.087035,5.123627,-0.149551,0.016152,10.029516,0.012726,-0.008383,-0.012394,-106.323441,-19.852621,-68.029251,0.000000,0.000000,
0,12.419000,0.000000,0.000000,nan,-0.010864,1.139463,5.148679,-0.186640,0.000598,10.041480,-0.010487,0.012997,-0.018197,-106.158157,-19.936794,-68.237938,0.000000,0.000000,
0,12.480000,0.000000,0.000000,nan,0.009096,1.131778,5.191418,-0.190229,-0.007178,10.009178,0.008908,-0.008383,-0.014379,-106.158157,-19.936794,-68.237938,0.000000,0.000000,
0,12.541000,0.000000,0.000000,nan,0.022285,1.118843,5.135394,-0.264407,-0.038285,10.036097,0.006923,-0.010368,-0.002773,-106.158157,-19.936794,-68.237938,0.000000,0.000000,
0,12.602000,0.000000,0.000000,nan,0.012776,1.068836,5.172115,-0.170489,0.014955,9.993624,-0.004684,-0.002580,0.001045,-106.158157,-19.936794,-68.237938,0.000000,0.000000,
0,12.663000,0.000000,0.000000,nan,-0.019726,1.136922,5.121268,-0.208774,-0.037089,10.048658,0.001120,-0.006398,0.037850,-106.284416,-19.850430,-68.407593,0.000000,0.000000,
0,12.724000,0.000000,0.000000,nan,-0.056794,1.134647,5.161524,-0.187238,-0.023928,10.029516,0.003105,-0.000594,-0.000788,-106.284416,-19.850430,-68.407593,0.000000,0.000000,
0,12.785000,0.000000,0.000000,nan,-0.078340,1.114885,5.145966,-0.195015,-0.007178,10.013963,-0.006516,0.014830,0.010819,-106.284416,-19.850430,-68.407593,0.000000,0.000000,
0,12.846000,0.000000,0.000000,nan,-0.114007,1.130279,5.149228,-0.205783,-0.048455,10.059426,-0.010487,0.007194,-0.006591,-106.804359,-19.876734,-68.833717,0.000000,0.000000,
0,12.907000,0.000000,0.000000,nan,-0.096054,1.123273,5.173783,-0.181855,-0.026919,10.020543,0.001120,-0.004412,-0.020183,-106.804359,-19.876734,-68.833717,0.000000,0.000000,
0,12.968000,0.000000,0.000000,nan,-0.061598,1.101801,5.114602,-0.201595,-0.005384,9.984651,-0.004684,-0.006398,0.003030,-106.804359,-19.876734,-68.833717,0.000000,0.000000,
0,13.029000,0.000000,0.000000,nan,-0.020916,1.094252,5.031879,-0.172881,-0.016152,10.036097,0.012726,-0.008383,0.022425,-106.858719,-20.157749,-68.665817,0.000000,0.000000,
0,13.090000,0.000000,0.000000,nan,-0.009802,1.075116,5.018443,-0.143569,-0.009571,10.006784,-0.002698,-0.006398,-0.025986,-106.858719,-20.157749,-68.665817,0.000000,0.000000,
0,13.151000,0.000000,0.000000,nan,0.004949,1.086683,5.053120,-0.195015,-0.017946,10.016356,-0.002698,-0.000594,-0.020183,-106.858719,-20.157749,-68.665817,0.000000,0.000000,
0,13.212000,0.000000,0.000000,nan,-0.008649,1.081815,4.964642,-0.173480,-0.018544,10.068997,0.006923,0.011012,0.049456,-106.355003,-19.436575,-68.829338,0.000000,0.000000,
0,13.273000,0.000000,0.000000,nan,-0.005073,1.076460,4.965734,-0.199202,-0.011964,10.004991,-0.002698,0.001238,-0.008576,-106.355003,-19.436575,-68.829338,0.000000,0.000000,
0,13.334000,0.000000,0.000000,nan,0.016758,1.036763,5.064354,-0.171685,-0.007777,10.029516,0.004937,-0.010368,-0.000788,-106.355003,-19.436575,-68.829338,0.000000,0.000000,
0,13.395000,0.000000,0.000000,nan,0.062145,0.975840,5.113932,-0.169890,0.007178,10.037293,-0.010487,0.003376,-0.014379,-107.013916,-19.794754,-68.751740,0.000000,0.000000,
0,13.456000,0.000000,0.000000,nan,0.085808,0.962298,5.096662,-0.172881,0.029910,10.029516,0.006923,0.003224,0.022425,-107.013916,-19.794754,-68.751740,0.000000,0.000000,
0,13.517000,0.000000,0.000000,nan,0.060143,0.984715,5.109054,-0.192622,-0.011366,10.011570,0.003105,0.012997,-0.024001,-107.013916,-19.794754,-68.751740,0.000000,0.000000,
0,13.578000,0.000000,0.000000,nan,0.030119,0.999490,5.163159,-0.178863,0.026919,10.057034,0.005090,-0.000594,0.036017,-107.013916,-19.794754,-68.751740,0.000000,0.000000,
0,13.639000,0.000000,0.000000,nan,0.042094,0.969067,5.216767,-0.214158,-0.016152,10.062418,-0.004684,0.005209,-0.012394,-106.872314,-19.555824,-68.582085,0.000000,0.000000,
0,13.700000,0.000000,0.000000,nan,0.060979,0.947560,5.132728,-0.135194,-0.002393,10.030114,-0.023926,-0.002580,0.034032,-106.872314,-19.555824,-68.582085,0.000000,0.000000,
0,13.761000,0.000000,0.000000,nan,0.001825,0.950225,5.158746,-0.139382,0.015553,9.997810,0.004937,0.001391,0.018607,-106.872314,-19.555824,-68.582085,0.000000,0.000000,
0,13.822000,0.000000,0.000000,nan,-0.005592,0.990639,5.192362,-0.191426,-0.005982,10.028319,-0.014305,0.005209,0.010819,-106.584282,-19.772833,-68.747360,0.000000,0.000000,
0,13.883000,0.000000,0.000000,nan,-0.064611,1.012823,5.112724,-0.210568,-0.037089,9.990633,-0.000866,-0.006398,0.043653,-106.584282,-19.772833,-68.747360,0.000000,0.000000,
0,13.944000,0.000000,0.000000,nan,-0.067442,1.020512,5.095554,-0.172881,-0.007178,10.004392,0.006923,-0.006398,0.012804,-106.584282,-19.772833,-68.747360,0.000000,0.000000,
0,14.005000,0.000000,0.000000,nan,-0.097255,1.040803,5.169514,-0.152542,-0.011366,10.036097,0.001120,0.005209,-0.016365,-106.387444,-19.947754,-69.628990,0.000000,0.000000,
0,14.066000,0.000000,0.000000,nan,-0.086090,1.057856,5.142686,-0.165105,-0.022134,10.027123,0.010741,-0.008383,-0.014379,-106.387444,-19.947754,-69.628990,0.000000,0.000000,
0,14.127000,0.000000,0.000000,nan,-0.095194,1.066427,5.211794,-0.156730,-0.026321,10.043874,-0.008502,0.012997,0.016622,-106.387444,-19.947754,-69.628990,0.000000,0.000000,
0,14.188000,0.000000,0.000000,nan,-0.120116,1.030884,5.255108,-0.206381,-0.047856,10.066007,0.012726,0.003224,0.003030,-106.913086,-19.743896,-67.530357,0.000000,0.000000,
0,14.249000,0.000000,0.000000,nan,-0.140827,1.058415,5.190729,-0.201595,-0.029312,10.088738,0.001120,0.003376,-0.037592,-106.913086,-19.743896,-67.530357,0.000000,0.000000,
0,14.310000,0.000000,0.000000,nan,-0.158901,1.049610,5.261018,-0.175872,0.013759,10.016954,0.004937,0.001238,-0.035607,-106.913086,-19.743896,-67.530357,0.000000,0.000000,
0,14.371000,0.000000,0.000000,nan,-0.163928,1.050163,5.289168,-0.173480,-0.025723,10.066007,0.010741,-0.000594,0.001045,-106.913086,-19.743896,-67.530357,0.000000,0.000000,
0,14.432000,0.000000,0.000000,nan,-0.159729,1.032804,5.221394,-0.259023,-0.028714,10.040284,-0.000866,-0.008383,0.010819,-106.596558,-19.217373,-68.326935,0.000000,0.000000,
0,14.493000,0.000000,0.000000,nan,-0.168160,0.997448,5.251853,-0.183051,-0.037687,10.058230,0.006923,-0.010215,-0.006591,-106.596558,-19.217373,-68.326935,0.000000,0.000000,
0,14.554000,0.000000,0.000000,nan,-0.154037,1.001227,5.283457,-0.182453,0.014357,10.052249,0.012726,0.007194,0.012804,-106.596558,-19.217373,-68.326935,0.000000,0.000000,
0,14.615000,0.000000,0.000000,nan,-0.146822,1.005278,5.202908,-0.177667,0.004187,10.041480,-0.004684,0.001238,0.028228,-107.140175,-19.708385,-68.921410,0.000000,0.000000,
0,14.676000,0.000000,0.000000,nan,-0.166726,1.020696,5.292215,-0.177069,-0.043071,10.080363,-0.010487,0.005209,-0.004606,-107.140175,-19.708385,-68.921410,0.000000,0.000000,
0,14.737000,0.000000,0.000000,nan,-0.159378,1.035968,5.274092,-0.196810,-0.029312,10.002597,0.008908,-0.004565,0.016622,-107.140175,-19.708385,-68.921410,0.000000,0.000000,
0,14.798000,0.000000,0.000000,nan,-0.112065,1.039623,5.336381,-0.168096,-0.056231,10.025329,-0.016290,0.014983,-0.025986,-106.347984,-19.250692,-68.997688,0.000000,0.000000,
0,14.859000,0.000000,0.000000,nan,-0.058572,1.049033,5.325027,-0.176471,-0.033500,10.046266,-0.012320,-0.002427,0.018607,-106.347984,-19.250692,-68.997688,0.000000,0.000000,
0,14.920000,0.000000,0.000000,nan,-0.087185,1.042557,5.275198,-0.253041,-0.029312,10.075578,-0.010487,-0.002580,0.008833,-106.347984,-19.250692,-68.997688,0.000000,0.000000,
0,14.981000,0.000000,0.000000,nan,-0.071753,1.032959,5.233307,-0.171087,-0.002991,10.025329,0.008908,-0.004565,-0.008576,-106.608391,-18.615446,-68.074844,0.000000,0.000000,
0,15.042000,0.000000,0.000000,nan,-0.065705,0.998497,5.261327,-0.172283,0.008375,10.009775,-0.002698,-0.006398,0.008833,-106.608391,-18.615446,-68.074844,0.000000,0.000000,
0,15.103000,0.000000,0.000000,nan,-0.116658,1.035604,5.308943,-0.148355,-0.016750,10.045070,0.003105,0.011012,-0.010409,-106.608391,-18.615446,-68.074844,0.000000,0.000000,
0,15.164000,0.000000,0.000000,nan,-0.144917,1.052291,5.281248,-0.230309,-0.001196,10.030713,-0.002698,0.009027,0.028228,-106.608391,-18.615446,-68.074844,0.000000,0.000000,
0,15.225000,0.000000,0.000000,nan,-0.119877,1.047083,5.435684,-0.172283,-0.019143,10.031909,-0.004684,-0.004565,-0.037592,-105.970955,-19.509790,-68.657051,0.000000,0.000000,
0,15.286000,0.000000,0.000000,nan,-0.077065,1.075023,5.411994,-0.195015,-0.005982,10.018748,-0.002698,-0.004412,0.043653,-105.970955,-19.509790,-68.657051,0.000000,0.000000,
0,15.347000,0.000000,0.000000,nan,-0.078696,1.050940,5.498794,-0.186042,-0.042473,10.052249,-0.004684,0.009027,-0.024001,-105.970955,-19.509790,-68.657051,0.000000,0.000000,
0,15.408000,0.000000,0.000000,nan,-0.093206,1.025401,5.447342,-0.175274,-0.022732,10.024731,0.001120,-0.000594,0.026243,-105.871880,-19.273052,-68.445747,0.000000,0.000000,
0,15.469000,0.000000,0.000000,nan,-0.092242,1.035712,5.417842,-0.180658,-0.037687,10.039685,-0.002698,0.011012,-0.014379,-105.871880,-19.273052,-68.445747,0.000000,0.000000,
0,15.530000,0.000000,0.000000,nan,-0.065653,1.084384,5.566551,-0.143569,0.011366,10.056436,0.004937,0.001391,-0.002773,-105.871880,-19.273052,-68.445747,0.000000,0.000000,
0,15.591000,0.000000,0.000000,nan,-0.023428,1.135105,5.561777,-0.257827,0.008973,9.993026,0.018529,-0.006398,-0.014379,-107.062149,-19.936356,-68.625923,0.000000,0.000000,
0,15.652000,0.000000,0.000000,nan,-0.016808,1.100965,5.593369,-0.150748,0.002991,10.037293,0.001120,-0.010215,0.001045,-107.062149,-19.936356,-68.625923,0.000000,0.000000,
0,15.713000,0.000000,0.000000,nan,-0.015053,1.079353,5.651421,-0.168694,0.008973,10.084551,-0.008502,0.003224,-0.022015,-107.062149,-19.936356,-68.625923,0.000000,0.000000,
0,15.774000,0.000000,0.000000,nan,-0.036010,1.084427,5.672958,-0.199202,-0.019741,10.025927,0.018529,-0.000594,-0.000788,-106.892044,-20.067003,-68.161224,0.000000,0.000000,
0,15.835000,0.000000,0.000000,nan,-0.034337,1.069025,5.734265,-0.132802,-0.019143,10.006784,-0.002698,0.003224,-0.004758,-106.892044,-20.067003,-68.161224,0.000000,0.000000,
0,15.896000,0.000000,0.000000,nan,-0.037976,1.067179,5.638820,-0.231506,-0.026919,10.078569,-0.002698,-0.014186,0.012651,-106.892044,-20.067003,-68.161224,0.000000,0.000000,
0,15.957000,0.000000,0.000000,nan,-0.029640,1.083961,5.721641,-0.245863,-0.034696,10.028918,0.004937,-0.004565,-0.041410,-106.892044,-20.067003,-68.161224,0.000000,0.000000,
0,16.018000,0.000000,0.000000,nan,-0.025593,1.102999,5.717749,-0.169292,0.016152,10.012168,0.020514,-0.000594,-0.008576,-106.440491,-19.626842,-67.946396,0.000000,0.000000,
0,16.079000,0.000000,0.000000,nan,-0.036525,1.145059,5.734984,-0.181256,0.012562,10.046865,-0.010334,-0.002580,0.010819,-106.440491,-19.626842,-67.946396,0.000000,0.000000,
0,16.139999,0.000000,0.000000,nan,0.029243,1.106991,5.705997,-0.136989,0.033500,10.016356,-0.000866,0.009027,0.008833,-106.440491,-19.626842,-67.946396,0.000000,0.000000,
0,16.201000,0.000000,0.000000,nan,-0.003795,1.159007,5.814939,-0.191426,-0.086142,10.027721,0.003105,-0.006398,-0.012394,-106.216026,-19.476469,-67.649597,0.000000,0.000000,
0,16.261999,0.000000,0.000000,nan,-0.018893,1.160635,5.738021,-0.167498,-0.007777,10.046865,0.006923,0.011012,0.012804,-106.216026,-19.476469,-67.649597,0.000000,0.000000,
0,16.323000,0.000000,0.000000,nan,-0.025364,1.154714,5.602273,-0.187238,-0.030508,10.077971,0.004937,0.009027,0.022425,-106.216026,-19.476469,-67.649597,0.000000,0.000000,
0,16.384001,0.000000,0.000000,nan,-0.095903,1.181963,5.641506,-0.214158,-0.039482,10.058230,-0.008502,0.005209,0.003030,-106.436546,-19.440960,-68.409348,0.000000,0.000000,
0,16.445000,0.000000,0.000000,nan,-0.081143,1.207038,5.555883,-0.205783,-0.006580,10.025927,0.001120,0.003224,-0.006591,-106.436546,-19.440960,-68.409348,0.000000,0.000000,
0,16.506001,0.000000,0.000000,nan,-0.060036,1.193407,5.678279,-0.139382,-0.017946,9.990633,-0.012320,0.016815,-0.027971,-106.436546,-19.440960,-68.409348,0.000000,0.000000,
0,16.566999,0.000000,0.000000,nan,-0.060138,1.193028,5.598999,-0.202792,0.007777,10.071390,0.008908,-0.004565,0.032199,-106.406731,-19.764065,-68.198486,0.000000,0.000000,
0,16.628000,0.000000,0.000000,nan,-0.094428,1.203587,5.532545,-0.165105,-0.005384,10.052846,-0.004684,0.014983,0.037850,-106.406731,-19.764065,-68.198486,0.000000,0.000000,
0,16.688999,0.000000,0.000000,nan,-0.108556,1.235154,5.492118,-0.193220,-0.022732,10.031310,0.026318,0.011012,-0.033774,-106.406731,-19.764065,-68.198486,0.000000,0.000000,
0,16.750000,0.000000,0.000000,nan,-0.081309,1.202062,5.473265,-0.196211,-0.011366,10.027721,-0.004684,0.001391,0.041820,-106.379990,-20.133638,-68.071777,0.000000,0.000000,
0,16.811001,0.000000,0.000000,nan,-0.104446,1.195807,5.530285,-0.163908,-0.019143,10.053444,-0.000713,0.018801,-0.002773,-106.379990,-20.133638,-68.071777,0.000000,0.000000,
0,16.872000,0.000000,0.000000,nan,-0.112809,1.192578,5.492036,-0.184247,-0.071785,10.075578,-0.002698,-0.018004,-0.004606,-106.379990,-20.133638,-68.071777,0.000000,0.000000,
0,16.933001,0.000000,0.000000,nan,-0.122594,1.176219,5.546959,-0.211765,-0.081954,10.057034,-0.008502,0.005209,-0.014379,-106.379990,-20.133638,-68.071777,0.000000,0.000000,
0,16.993999,0.000000,0.000000,nan,-0.088329,1.155582,5.637025,-0.142971,-0.011366,10.020543,0.008908,0.003376,-0.027971,-105.960434,-20.297602,-68.193665,0.000000,0.000000,
0,17.055000,0.000000,0.000000,nan,-0.069121,1.161985,5.668586,-0.151346,0.005384,10.038489,0.006923,0.003224,0.005016,-105.960434,-20.297602,-68.193665,0.000000,0.000000,
0,17.115999,0.000000,0.000000,nan,-0.084640,1.146415,5.646955,-0.190229,-0.029910,10.054043,0.010741,0.001391,0.016622,-105.960434,-20.297602,-68.193665,0.000000,0.000000,
0,17.177000,0.000000,0.000000,nan,-0.065599,1.158286,5.702190,-0.169890,-0.046062,10.068399,-0.014305,0.012997,-0.029957,-106.288361,-19.850430,-68.786392,0.000000,0.000000,
0,17.238001,0.000000,0.000000,nan,-0.098903,1.203811,5.537284,-0.205185,-0.066401,10.065408,0.006923,0.012997,0.026243,-106.288361,-19.850430,-68.786392,0.000000,0.000000,
0,17.299000,0.000000,0.000000,nan,-0.064102,1.231537,5.531579,-0.180658,0.010169,10.049257,0.018529,-0.002580,-0.002773,-106.288361,-19.850430,-68.786392,0.000000,0.000000,
0,17.360001,0.000000,0.000000,nan,-0.014674,1.222706,5.520519,-0.213559,0.010768,10.039088,0.001120,-0.010368,0.010819,-106.084061,-20.164764,-68.321236,0.000000,0.000000,
0,17.421000,0.000000,0.000000,nan,-0.039859,1.212885,5.569767,-0.209372,0.003589,10.040284,0.016544,0.005209,-0.018197,-106.084061,-20.164764,-68.321236,0.000000,0.000000,
0,17.482000,0.000000,0.000000,nan,-0.034122,1.208280,5.599177,-0.163310,-0.006580,10.074981,-0.000713,0.007194,-0.000788,-106.084061,-20.164764,-68.321236,0.000000,0.000000,
0,17.542999,0.000000,0.000000,nan,-0.047166,1.282699,5.707229,-0.220738,-0.035892,10.010373,0.016544,-0.014186,-0.024153,-106.158157,-19.797384,-68.869240,0.000000,0.000000,
0,17.604000,0.000000,0.000000,nan,-0.056303,1.275535,5.745962,-0.204586,-0.009571,10.018748,-0.004684,-0.006398,-0.006591,-106.158157,-19.797384,-68.869240,0.000000,0.000000,
0,17.665001,0.000000,0.000000,nan,-0.124051,1.302260,5.698060,-0.164507,-0.054437,10.080962,-0.002698,0.007194,0.006848,-106.158157,-19.797384,-68.869240,0.000000,0.000000,
0,17.726999,0.000000,0.000000,nan,-0.142255,1.295200,5.644324,-0.140578,-0.012562,10.019346,0.004937,0.012997,0.016622,-106.158157,-19.797384,-68.869240,0.000000,0.000000,
0,17.788000,0.000000,0.000000,nan,-0.134065,1.292254,5.652253,-0.195015,-0.000598,10.032507,0.010741,-0.016171,-0.000788,-106.712288,-19.639996,-69.295807,0.000000,0.000000,
0,17.849001,0.000000,0.000000,nan,-0.082289,1.277534,5.693254,-0.192024,-0.015553,10.054043,0.014711,0.011012,-0.041410,-106.712288,-19.639996,-69.295807,0.000000,0.000000,
0,17.910000,0.000000,0.000000,nan,-0.104154,1.312633,5.745445,-0.184247,-0.042473,10.012767,0.018529,0.009027,0.003030,-106.712288,-19.639996,-69.295807,0.000000,0.000000,
0,17.971001,0.000000,0.000000,nan,-0.043196,1.266437,5.864197,-0.198006,-0.026919,10.010373,-0.012320,0.005209,-0.025986,-106.508881,-19.861389,-69.335716,0.000000,0.000000,
0,18.032000,0.000000,0.000000,nan,0.006912,1.234566,5.728160,-0.194417,-0.013161,9.987044,0.004937,-0.014186,0.022425,-106.508881,-19.861389,-69.335716,0.000000,0.000000,
0,18.093000,0.000000,0.000000,nan,0.080129,1.188060,5.825382,-0.166301,0.002393,9.996615,0.010741,0.001238,-0.018197,-106.508881,-19.861389,-69.335716,0.000000,0.000000,
0,18.153999,0.000000,0.000000,nan,0.028843,1.214178,5.859536,-0.209970,-0.029910,10.012168,0.004937,0.005209,0.030214,-106.243645,-19.662354,-69.459328,0.000000,0.000000,
0,18.215000,0.000000,0.000000,nan,0.045937,1.211069,5.834635,-0.178863,0.024526,10.055838,-0.006669,0.011012,0.010819,-106.243645,-19.662354,-69.459328,0.000000,0.000000,
0,18.275999,0.000000,0.000000,nan,0.030096,1.200529,5.817031,-0.199202,-0.026321,10.078569,0.006923,-0.000594,-0.018197,-106.243645,-19.662354,-69.459328,0.000000,0.000000,
0,18.337000,0.000000,0.000000,nan,0.010012,1.176629,5.848297,-0.191426,-0.029910,10.027123,-0.006669,0.005209,-0.008576,-106.666260,-19.637802,-69.000755,0.000000,0.000000,
0,18.398001,0.000000,0.000000,nan,0.017608,1.129012,5.820509,-0.142373,0.012562,10.002597,-0.002698,-0.016171,0.008833,-106.666260,-19.637802,-69.000755,0.000000,0.000000,
0,18.459000,0.000000,0.000000,nan,0.029694,1.087957,5.863373,-0.177667,0.021535,10.024132,-0.002698,0.003224,-0.008576,-106.666260,-19.637802,-69.000755,0.000000,0.000000,
0,18.520000,0.000000,0.000000,nan,0.000527,1.102398,5.821686,-0.189033,0.018544,9.998409,-0.004684,-0.014186,0.012651,-106.666260,-19.637802,-69.000755,0.000000,0.000000,
0,18.580999,0.000000,0.000000,nan,-0.044793,1.075177,5.863296,-0.144168,0.000000,10.041480,-0.014305,0.011012,0.006848,-106.019180,-19.651394,-68.531235,0.000000,0.000000,
0,18.642000,0.000000,0.000000,nan,-0.026567,1.092621,5.788282,-0.123230,-0.022732,10.043874,0.003105,0.012997,0.041820,-106.019180,-19.651394,-68.531235,0.000000,0.000000,
0,18.702999,0.000000,0.000000,nan,-0.096999,1.066242,5.769020,-0.204586,-0.032303,10.031909,-0.006669,0.016815,0.018607,-106.019180,-19.651394,-68.531235,0.000000,0.000000,
0,18.764000,0.000000,0.000000,nan,-0.069540,1.075891,5.787695,-0.203988,-0.006580,10.043874,-0.000713,-0.014186,0.005016,-106.446625,-19.533903,-68.956482,0.000000,0.000000,
0,18.825001,0.000000,0.000000,nan,-0.096748,1.126998,5.718060,-0.196810,0.001196,10.012168,0.008908,-0.002580,0.034032,-106.446625,-19.533903,-68.956482,0.000000,0.000000,
0,18.886000,0.000000,0.000000,nan,-0.101106,1.167699,5.768643,-0.165105,0.004187,10.064810,0.001120,0.014983,-0.010409,-106.446625,-19.533903,-68.956482,0.000000,0.000000,
0,18.947001,0.000000,0.000000,nan,-0.135177,1.186127,5.788796,-0.189033,-0.036491,10.003794,-0.000866,0.003224,0.003030,-105.689064,-19.819740,-68.990677,0.000000,0.000000,
0,19.007999,0.000000,0.000000,nan,-0.091448,1.131727,5.803359,-0.205185,-0.028714,10.064212,-0.010334,0.005209,-0.002773,-105.689064,-19.819740,-68.990677,0.000000,0.000000,
0,19.069000,0.000000,0.000000,nan,-0.081380,1.108109,5.759995,-0.221934,-0.060419,10.019944,-0.006516,-0.000594,0.008833,-105.689064,-19.819740,-68.990677,0.000000,0.000000,
0,19.129999,0.000000,0.000000,nan,-0.061266,1.083856,5.725411,-0.146560,-0.022134,10.078569,-0.010487,0.007194,-0.004758,-106.467667,-20.091551,-68.451447,0.000000,0.000000,
0,19.191000,0.000000,0.000000,nan,-0.066431,1.115709,5.763650,-0.190229,-0.002393,10.031310,0.003105,-0.004565,-0.020183,-106.467667,-20.091551,-68.451447,0.000000,0.000000,
0,19.252001,0.000000,0.000000,nan,-0.091428,1.083011,5.694978,-0.153739,-0.028116,10.001998,-0.014305,0.001391,0.003030,-106.467667,-20.091551,-68.451447,0.000000,0.000000,
0,19.313000,0.000000,0.000000,nan,-0.099940,1.123473,5.674058,-0.156730,-0.014955,10.038489,0.003105,-0.002427,0.041820,-106.434349,-19.440960,-68.198921,0.000000,0.000000,
0,19.374001,0.000000,0.000000,nan,-0.052986,1.154668,5.647100,-0.193220,0.025125,10.020543,-0.004684,0.001238,0.014637,-106.434349,-19.440960,-68.198921,0.000000,0.000000,
0,19.434999,0.000000,0.000000,nan,-0.059604,1.152908,5.729116,-0.160917,0.017946,9.997213,0.006923,0.001391,-0.002773,-106.434349,-19.440960,-68.198921,0.000000,0.000000,
0,19.496000,0.000000,0.000000,nan,-0.038313,1.174000,5.690799,-0.178265,0.004786,10.042677,0.001120,-0.008383,-0.004758,-106.434349,-19.440960,-68.198921,0.000000,0.000000,
0,19.556999,0.000000,0.000000,nan,0.004880,1.176087,5.793886,-0.187238,0.025723,10.027721,0.014711,-0.019989,0.003030,-106.205940,-20.171341,-67.649162,0.000000,0.000000,
0,19.618000,0.000000,0.000000,nan,0.021116,1.213415,5.668885,-0.221336,-0.016750,10.000803,-0.004684,0.009180,0.028228,-106.205940,-20.171341,-67.649162,0.000000,0.000000,
0,19.679001,0.000000,0.000000,nan,0.029590,1.244191,5.740656,-0.160917,0.003589,10.022936,0.003105,-0.018004,-0.016212,-106.205940,-20.171341,-67.649162,0.000000,0.000000,
0,19.740000,0.000000,0.000000,nan,0.064684,1.181527,5.842536,-0.157926,-0.059222,10.019346,-0.000713,-0.006398,-0.027971,-106.428215,-19.301550,-68.241005,0.000000,0.000000,
0,19.801001,0.000000,0.000000,nan,0.000078,1.157313,5.850994,-0.204586,-0.022134,10.067801,0.001120,-0.006398,-0.014379,-106.428215,-19.301550,-68.241005,0.000000,0.000000,
0,19.862000,0.000000,0.000000,nan,0.016014,1.157902,5.787925,-0.168096,-0.038883,10.042677,-0.004684,0.007194,0.020440,-106.428215,-19.301550,-68.241005,0.000000,0.000000,
0,19.923000,0.000000,0.000000,nan,0.026181,1.113279,5.880549,-0.169890,-0.057428,10.052249,-0.000866,0.001238,-0.014379,-106.578156,-19.679890,-68.579018,0.000000,0.000000,
0,19.983999,0.000000,0.000000,nan,0.072793,1.102787,5.902428,-0.178265,-0.003589,10.018748,-0.008502,-0.002580,-0.008576,-106.578156,-19.679890,-68.579018,0.000000,0.000000,
0,20.045000,0.000000,0.000000,nan,0.042725,1.069152,5.934609,-0.141177,-0.071186,10.031909,-0.002698,0.001238,0.008833,-106.578156,-19.679890,-68.579018,0.000000,0.000000,
0,20.106001,0.000000,0.000000,nan,0.010756,1.053462,5.821691,-0.218943,-0.031107,10.067801,-0.008502,-0.002580,0.026243,-106.948158,-20.301548,-68.372101,0.000000,0.000000,
0,20.167000,0.000000,0.000000,nan,0.007409,1.046754,5.793451,-0.138186,-0.041276,10.022338,-0.002698,0.007194,-0.018197,-106.948158,-20.301548,-68.372101,0.000000,0.000000,
0,20.228001,0.000000,0.000000,nan,-0.074498,1.071974,5.754094,-0.184247,-0.081954,10.044471,0.010741,0.012845,0.026243,-106.948158,-20.301548,-68.372101,0.000000,0.000000,
0,20.289000,0.000000,0.000000,nan,-0.067558,1.070444,5.808884,-0.227916,-0.034696,10.068399,-0.006669,0.005209,-0.024001,-106.948158,-20.301548,-68.372101,0.000000,0.000000,
0,20.350000,0.000000,0.000000,nan,-0.077362,1.098583,5.735997,-0.175872,-0.007178,10.011570,-0.018123,-0.000594,-0.012394,-106.877129,-19.741705,-68.203308,0.000000,0.000000,
0,20.410999,0.000000,0.000000,nan,-0.076759,1.108223,5.743599,-0.209372,-0.002393,10.031310,0.004937,0.005209,-0.006591,-106.877129,-19.741705,-68.203308,0.000000,0.000000,
0,20.472000,0.000000,0.000000,nan,-0.089468,1.148265,5.667154,-0.217747,-0.004786,10.030114,0.004937,-0.004412,0.010819,-106.877129,-19.741705,-68.203308,0.000000,0.000000,
0,20.533001,0.000000,0.000000,nan,-0.099527,1.146304,5.676609,-0.205783,-0.007178,9.989436,0.006923,0.003224,0.010819,-106.767097,-19.086731,-68.833717,0.000000,0.000000,
0,20.594000,0.000000,0.000000,nan,-0.130719,1.159598,5.650258,-0.160319,-0.072383,10.036695,-0.039350,-0.002580,0.032199,-106.767097,-19.086731,-68.833717,0.000000,0.000000,
0,20.655001,0.000000,0.000000,nan,-0.185146,1.142177,5.736587,-0.191426,-0.026321,10.030713,-0.008502,-0.002580,-0.035607,-106.767097,-19.086731,-68.833717,0.000000,0.000000,
0,20.716000,0.000000,0.000000,nan,-0.158716,1.166028,5.792226,-0.142373,0.002393,10.027721,0.016544,0.003376,0.001198,-106.930183,-19.836840,-68.750862,0.000000,0.000000,
0,20.777000,0.000000,0.000000,nan,-0.173790,1.157712,5.763167,-0.257827,-0.054437,10.058828,-0.006669,-0.002580,0.001198,-106.930183,-19.836840,-68.750862,0.000000,0.000000,
0,20.837999,0.000000,0.000000,nan,-0.185089,1.144824,5.807634,-0.184846,-0.035294,10.040284,-0.006516,0.012997,-0.008576,-106.930183,-19.836840,-68.750862,0.000000,0.000000,
0,20.899000,0.000000,0.000000,nan,-0.220166,1.136074,5.684558,-0.161516,0.013161,10.007382,0.001120,0.001238,0.012804,-106.898178,-19.927588,-69.381729,0.000000,0.000000,
0,20.959999,0.000000,0.000000,nan,-0.177650,1.130232,5.706786,-0.184247,-0.017348,10.013963,0.010741,-0.008383,0.016622,-106.898178,-19.927588,-69.381729,0.000000,0.000000,
0,21.021000,0.000000,0.000000,nan,-0.146366,1.112582,5.707465,-0.150150,-0.011964,10.034901,-0.000866,0.001238,-0.008576,-106.898178,-19.927588,-69.381729,0.000000,0.000000,
0,21.082001,0.000000,0.000000,nan,-0.156101,1.096125,5.756308,-0.151346,-0.022732,10.052249,-0.010487,0.001391,-0.027971,-106.898178,-19.927588,-69.381729,0.000000,0.000000,
0,21.143000,0.000000,0.000000,nan,-0.111709,1.140810,5.763544,-0.206979,-0.020937,10.043874,-0.002698,0.005209,0.003030,-107.098976,-19.752665,-68.878891,0.000000,0.000000,
0,21.204000,0.000000,0.000000,nan,-0.084140,1.086743,5.743719,-0.180658,-0.031705,10.055838,-0.006669,0.003376,0.020440,-107.098976,-19.752665,-68.878891,0.000000,0.000000,
0,21.264999,0.000000,0.000000,nan,-0.081795,1.116384,5.807561,-0.193220,-0.004786,10.022338,-0.002698,0.003224,-0.033774,-107.098976,-19.752665,-68.878891,0.000000,0.000000,
0,21.326000,0.000000,0.000000,nan,-0.102557,1.128734,5.725016,-0.184846,-0.042473,10.027721,0.008908,-0.002580,0.032046,-107.027946,-20.166517,-68.415047,0.000000,0.000000,
0,21.386999,0.000000,0.000000,nan,-0.124719,1.146780,5.726043,-0.165703,-0.053240,10.073185,-0.014305,0.005209,-0.014379,-107.027946,-20.166517,-68.415047,0.000000,0.000000,
0,21.448000,0.000000,0.000000,nan,-0.121242,1.143016,5.682266,-0.205783,-0.016152,10.031909,-0.000713,0.007194,0.034032,-107.027946,-20.166517,-68.415047,0.000000,0.000000,
0,21.509001,0.000000,0.000000,nan,-0.127030,1.150581,5.713488,-0.212363,-0.012562,10.036695,-0.002698,0.005209,-0.025986,-107.269508,-19.807905,-68.543945,0.000000,0.000000,
0,21.570000,0.000000,0.000000,nan,-0.138913,1.175010,5.743323,-0.167498,-0.049651,10.056436,0.003105,0.005209,-0.012394,-107.269508,-19.807905,-68.543945,0.000000,0.000000,
0,21.631001,0.000000,0.000000,nan,-0.112008,1.198519,5.799386,-0.205783,0.007777,10.069595,0.008908,0.001391,-0.008576,-107.269508,-19.807905,-68.543945,0.000000,0.000000,
0,21.691999,0.000000,0.000000,nan,-0.148458,1.220374,5.801919,-0.168694,0.001196,10.012168,-0.008502,-0.004565,0.022425,-106.375603,-19.994228,-68.282219,0.000000,0.000000,
0,21.753000,0.000000,0.000000,nan,-0.147675,1.265868,5.766935,-0.201595,-0.046062,10.046266,-0.000713,-0.006398,-0.020183,-106.375603,-19.994228,-68.282219,0.000000,0.000000,
0,21.813999,0.000000,0.000000,nan,-0.146087,1.265236,5.707082,-0.216550,-0.016152,10.038489,0.003105,0.001238,0.012804,-106.375603,-19.994228,-68.282219,0.000000,0.000000,
0,21.875000,0.000000,0.000000,nan,-0.095205,1.273443,5.759219,-0.183649,0.030508,10.039685,-0.004684,-0.004565,0.005016,-106.375603,-19.994228,-68.282219,0.000000,0.000000,
0,21.936001,0.000000,0.000000,nan,-0.122669,1.287972,5.723001,-0.171087,-0.034098,10.023534,-0.008502,-0.004412,0.007001,-106.458031,-19.859198,-68.577705,0.000000,0.000000,
0,21.997000,0.000000,0.000000,nan,-0.096938,1.294376,5.729130,-0.198604,0.015553,10.009178,0.003105,0.001391,-0.008576,-106.458031,-19.859198,-68.577705,0.000000,0.000000,
0,22.058001,0.000000,0.000000,nan,-0.081524,1.257749,5.610249,-0.202194,-0.026919,10.005588,-0.008502,0.007041,0.037850,-106.458031,-19.859198,-68.577705,0.000000,0.000000,
0,22.118999,0.000000,0.000000,nan,-0.082206,1.226958,5.781473,-0.199801,-0.038883,10.041480,0.010893,0.001391,-0.012394,-106.848640,-20.018339,-68.329124,0.000000,0.000000,
0,22.180000,0.000000,0.000000,nan,-0.108413,1.247221,5.648765,-0.205185,0.001196,10.014561,-0.002698,-0.002580,-0.016365,-106.848640,-20.018339,-68.329124,0.000000,0.000000,
0,22.240999,0.000000,0.000000,nan,-0.071142,1.244014,5.554024,-0.147159,0.028714,10.052846,0.003105,0.016815,0.016622,-106.848640,-20.018339,-68.329124,0.000000,0.000000,
0,22.302000,0.000000,0.000000,nan,-0.049280,1.246006,5.590209,-0.199202,-0.007178,10.046865,-0.000866,-0.002427,-0.012394,-106.934570,-20.022724,-68.330002,0.000000,0.000000,
0,22.363001,0.000000,0.000000,nan,-0.068893,1.236244,5.612207,-0.185444,0.001196,10.053444,-0.008502,0.009180,0.003030,-106.934570,-20.022724,-68.330002,0.000000,0.000000,
0,22.424000,0.000000,0.000000,nan,-0.053244,1.188204,5.589239,-0.169890,-0.034696,9.999606,-0.000866,0.005209,0.005016,-106.934570,-20.022724,-68.330002,0.000000,0.000000,
0,22.485001,0.000000,0.000000,nan,-0.073539,1.188154,5.559991,-0.177069,0.001795,10.028319,0.001120,0.009027,-0.006591,-106.798660,-19.923204,-68.076164,0.000000,0.000000,
0,22.546000,0.000000,0.000000,nan,-0.060871,1.206173,5.494612,-0.220140,-0.022134,10.074382,-0.022093,-0.006398,0.006848,-106.798660,-19.923204,-68.076164,0.000000,0.000000,
0,22.607000,0.000000,0.000000,nan,-0.055689,1.219702,5.469275,-0.205185,-0.024526,10.035498,-0.016290,0.014830,0.028228,-106.798660,-19.923204,-68.076164,0.000000,0.000000,
0,22.667999,0.000000,0.000000,nan,-0.050468,1.252879,5.497522,-0.212961,-0.011964,9.993026,-0.008502,0.014830,-0.014379,-106.931938,-20.671122,-69.255478,0.000000,0.000000,
0,22.729000,0.000000,0.000000,nan,-0.077373,1.237177,5.440265,-0.172881,-0.010768,10.022936,0.001120,0.003224,-0.010562,-106.931938,-20.671122,-69.255478,0.000000,0.000000,
0,22.790001,0.000000,0.000000,nan,-0.051357,1.288573,5.442868,-0.209372,0.013759,10.034901,0.024332,-0.000594,0.005016,-106.931938,-20.671122,-69.255478,0.000000,0.000000,
0,22.851000,0.000000,0.000000,nan,-0.080670,1.332080,5.489317,-0.180658,-0.032303,10.048061,0.010893,-0.002580,-0.010562,-106.931938,-20.671122,-69.255478,0.000000,0.000000,
0,22.912001,0.000000,0.000000,nan,-0.085601,1.292873,5.539030,-0.175872,0.032303,10.022338,0.018529,0.009027,-0.035607,-106.468102,-20.138021,-68.283096,0.000000,0.000000,
0,22.973000,0.000000,0.000000,nan,-0.067271,1.245291,5.558351,-0.179462,0.002991,10.067204,-0.000866,0.005209,0.012804,-106.468102,-20.138021,-68.283096,0.000000,0.000000,
0,23.034000,0.000000,0.000000,nan,-0.072537,1.210524,5.576954,-0.216550,-0.018544,10.028319,-0.012472,0.003224,-0.010562,-106.468102,-20.138021,-68.283096,0.000000,0.000000,
0,23.094999,0.000000,0.000000,nan,-0.097065,1.218775,5.727946,-0.178265,0.019741,10.006186,-0.006516,-0.000594,-0.049199,-106.832863,-20.573795,-68.412857,0.000000,0.000000,
0,23.156000,0.000000,0.000000,nan,-0.140158,1.174553,5.714766,-0.139382,0.031107,10.017551,0.008908,0.001238,0.003030,-106.832863,-20.573795,-68.412857,0.000000,0.000000,
0,23.216999,0.000000,0.000000,nan,-0.123502,1.156171,5.778120,-0.148953,-0.017348,10.018150,0.004937,-0.012201,-0.014379,-106.832863,-20.573795,-68.412857,0.000000,0.000000,
0,23.278000,0.000000,0.000000,nan,-0.115194,1.140086,5.826489,-0.194417,-0.021535,10.016356,-0.002698,0.007194,-0.014379,-107.065651,-20.168711,-67.910454,0.000000,0.000000,
0,23.339001,0.000000,0.000000,nan,-0.065974,1.162714,5.881821,-0.233898,-0.044865,10.027721,-0.010487,0.005209,-0.002773,-107.065651,-20.168711,-67.910454,0.000000,0.000000,
0,23.400000,0.000000,0.000000,nan,-0.071119,1.167935,5.801033,-0.187238,-0.017946,10.033704,-0.006516,-0.004412,0.010819,-107.065651,-20.168711,-67.910454,0.000000,0.000000,
0,23.461000,0.000000,0.000000,nan,-0.094469,1.186734,5.770357,-0.160917,0.028714,10.022936,-0.010487,0.007194,0.028228,-106.076164,-19.932409,-68.615845,0.000000,0.000000,
0,23.521999,0.000000,0.000000,nan,-0.115181,1.157865,5.763657,-0.189631,-0.040080,10.048658,0.012726,-0.008383,-0.031789,-106.076164,-19.932409,-68.615845,0.000000,0.000000,
0,23.583000,0.000000,0.000000,nan,-0.142897,1.174545,5.799400,-0.196211,-0.020339,10.060623,-0.004684,-0.002580,0.008833,-106.076164,-19.932409,-68.615845,0.000000,0.000000,
0,23.643999,0.000000,0.000000,nan,-0.136702,1.162905,5.741704,-0.165105,0.023330,10.074382,0.004937,0.001238,0.024258,-106.076164,-19.932409,-68.615845,0.000000,0.000000,
0,23.705000,0.000000,0.000000,nan,-0.144601,1.151996,5.742392,-0.196211,0.001196,10.057034,0.001120,-0.012201,-0.006591,-106.293182,-19.943371,-68.828461,0.000000,0.000000,
0,23.766001,0.000000,0.000000,nan,-0.119058,1.111246,5.724027,-0.123829,-0.007777,9.996615,-0.002698,-0.010368,0.008833,-106.293182,-19.943371,-68.828461,0.000000,0.000000,
0,23.829000,0.000000,0.000000,nan,-0.124487,1.113743,5.853844,-0.172283,-0.052044,10.064810,0.005090,0.001391,-0.022015,-106.293182,-19.943371,-68.828461,0.000000,0.000000,
0,23.889999,0.000000,0.000000,nan,-0.112950,1.111952,5.966611,-0.175274,-0.016750,10.005588,0.005090,-0.002580,-0.016212,-106.398842,-19.531712,-68.493095,0.000000,0.000000,
0,23.951000,0.000000,0.000000,nan,-0.103430,1.109281,6.056716,-0.210568,-0.011366,10.001400,0.004937,-0.004412,-0.033774,-106.398842,-19.531712,-68.493095,0.000000,0.000000,
0,24.011999,0.000000,0.000000,nan,-0.122952,1.128887,6.114554,-0.144766,-0.012562,10.043874,-0.012320,0.018801,0.003030,-106.398842,-19.531712,-68.493095,0.000000,0.000000,
0,24.073000,0.000000,0.000000,nan,-0.117543,1.122175,6.134398,-0.214756,0.005384,10.015160,0.003105,0.018801,0.024410,-106.349304,-20.224390,-68.828896,0.000000,0.000000,
0,24.134001,0.000000,0.000000,nan,-0.106234,1.139152,6.071731,-0.177069,0.011366,10.009775,-0.000866,0.001391,0.014637,-106.349304,-20.224390,-68.828896,0.000000,0.000000,
0,24.195000,0.000000,0.000000,nan,-0.119526,1.113496,6.096454,-0.163908,0.005384,10.024132,0.012726,0.007194,0.010819,-106.349304,-20.224390,-68.828896,0.000000,0.000000,
0,24.256001,0.000000,0.000000,nan,-0.084902,1.138139,6.124141,-0.194417,-0.022134,10.050453,0.003105,0.001238,-0.010562,-106.561058,-20.142406,-68.957359,0.000000,0.000000,
0,24.316999,0.000000,0.000000,nan,-0.046128,1.112677,6.093688,-0.215952,-0.006580,10.018748,0.012726,-0.006398,0.020440,-106.561058,-20.142406,-68.957359,0.000000,0.000000,
0,24.378000,0.000000,0.000000,nan,-0.075089,1.096224,6.096218,-0.169890,-0.012562,10.036695,-0.012320,0.007194,-0.002773,-106.561058,-20.142406,-68.957359,0.000000,0.000000,
0,24.438999,0.000000,0.000000,nan,-0.055270,1.059357,6.055139,-0.157328,0.027517,10.024132,-0.000713,-0.006398,0.008833,-106.561058,-20.142406,-68.957359,0.000000,0.000000,
0,24.500000,0.000000,0.000000,nan,-0.074927,1.100700,6.063707,-0.181855,-0.062213,10.059426,0.004937,-0.004412,-0.053017,-106.516769,-20.047274,-69.251534,0.000000,0.000000,
0,24.561001,0.000000,0.000000,nan,-0.062543,1.079896,6.103282,-0.177667,-0.006580,10.068399,-0.004684,-0.008383,-0.031789,-106.516769,-20.047274,-69.251534,0.000000,0.000000,
0,24.622000,0.000000,0.000000,nan,-0.084901,1.074393,5.988767,-0.162712,0.006580,10.025329,0.006923,-0.006398,0.022425,-106.516769,-20.047274,-69.251534,0.000000,0.000000,
0,24.683001,0.000000,0.000000,nan,-0.078847,1.013169,6.014630,-0.181256,-0.011964,10.024731,-0.006516,0.001391,-0.018197,-106.470299,-19.998611,-69.124840,0.000000,0.000000,
0,24.743999,0.000000,0.000000,nan,-0.075889,1.095775,6.133765,-0.144168,-0.022134,10.074981,0.004937,-0.010368,-0.018197,-106.470299,-19.998611,-69.124840,0.000000,0.000000,
0,24.805000,0.000000,0.000000,nan,-0.044465,1.081362,6.009820,-0.168096,0.006580,10.037891,-0.004684,-0.002580,0.005016,-106.470299,-19.998611,-69.124840,0.000000,0.000000,
0,24.865999,0.000000,0.000000,nan,-0.012323,1.077988,6.056375,-0.210568,-0.020339,10.076176,0.004937,-0.008383,-0.016212,-106.738159,-20.290588,-68.832840,0.000000,0.000000,
0,24.927000,0.000000,0.000000,nan,-0.014092,1.083375,6.007915,-0.202792,-0.055035,10.046266,-0.010487,0.011012,0.012651,-106.738159,-20.290588,-68.832840,0.000000,0.000000,
0,24.988001,0.000000,0.000000,nan,0.015394,1.119519,6.043288,-0.165703,-0.019143,10.022936,-0.016290,-0.002580,0.007001,-106.738159,-20.290588,-68.832840,0.000000,0.000000,
0,25.049000,0.000000,0.000000,nan,0.024664,1.136017,5.980403,-0.131007,0.007777,10.014561,-0.008502,-0.004565,0.032199,-106.854340,-19.971867,-69.086685,0.000000,0.000000,
0,25.110001,0.000000,0.000000,nan,0.040537,1.139749,5.786772,-0.186042,-0.049053,10.070793,0.001120,0.007194,-0.035607,-106.854340,-19.971867,-69.086685,0.000000,0.000000,
0,25.171000,0.000000,0.000000,nan,0.012423,1.149734,5.834468,-0.186640,-0.025723,10.049257,0.024332,-0.010368,-0.029804,-106.854340,-19.971867,-69.086685,0.000000,0.000000,
0,25.232000,0.000000,0.000000,nan,0.010550,1.099285,5.798245,-0.163908,-0.058624,10.026525,0.001120,0.001238,-0.010562,-106.514137,-20.093742,-68.788582,0.000000,0.000000,
0,25.292999,0.000000,0.000000,nan,0.003912,1.112681,5.846933,-0.154337,-0.004187,10.042078,0.001120,0.001391,0.012804,-106.514137,-20.093742,-68.788582,0.000000,0.000000,
0,25.354000,0.000000,0.000000,nan,-0.043025,1.091728,5.794662,-0.195015,-0.031705,10.001998,-0.012320,-0.012353,-0.002773,-106.514137,-20.093742,-68.788582,0.000000,0.000000,
0,25.415001,0.000000,0.000000,nan,-0.053480,1.107830,5.877688,-0.153141,0.005384,10.030713,-0.014305,0.022619,0.024410,-106.514137,-20.093742,-68.788582,0.000000,0.000000,
0,25.476000,0.000000,0.000000,nan,-0.062040,1.100417,5.933075,-0.140578,-0.039482,10.002597,0.004937,-0.021975,-0.008576,-107.022682,-20.120047,-68.120438,0.000000,0.000000,
0,25.537001,0.000000,0.000000,nan,-0.065006,1.115445,5.963769,-0.186042,-0.015553,10.024731,-0.004684,0.014983,-0.006591,-107.022682,-20.120047,-68.120438,0.000000,0.000000,
0,25.598000,0.000000,0.000000,nan,-0.041515,1.164993,5.862835,-0.193819,0.002393,10.057034,0.010893,-0.010215,0.012651,-107.022682,-20.120047,-68.120438,0.000000,0.000000,
0,25.659000,0.000000,0.000000,nan,-0.034577,1.141320,5.813782,-0.158524,0.009571,10.060623,0.010741,-0.016171,0.014637,-106.878448,-19.695234,-68.540001,0.000000,0.000000,
0,25.719999,0.000000,0.000000,nan,-0.041932,1.141219,5.795101,-0.208176,-0.032901,10.057631,0.003105,0.007194,0.001198,-106.878448,-19.695234,-68.540001,0.000000,0.000000,
0,25.781000,0.000000,0.000000,nan,-0.041439,1.103229,5.825241,-0.127418,0.004786,10.063016,-0.012320,0.014983,-0.035607,-106.878448,-19.695234,-68.540001,0.000000,0.000000,
0,25.841999,0.000000,0.000000,nan,-0.042129,1.090117,5.744229,-0.171685,-0.001196,10.004392,-0.012320,-0.006398,0.030214,-106.571571,-20.374760,-68.915276,0.000000,0.000000,
0,25.903000,0.000000,0.000000,nan,-0.066922,1.101819,5.789338,-0.169292,0.032303,9.950553,0.004937,0.005209,0.010819,-106.571571,-20.374760,-68.915276,0.000000,0.000000,
0,25.964001,0.000000,0.000000,nan,-0.071399,1.099115,5.712001,-0.160917,-0.035294,10.100702,-0.004684,-0.000594,-0.000788,-106.571571,-20.374760,-68.915276,0.000000,0.000000,
0,26.025000,0.000000,0.000000,nan,-0.106282,1.124600,5.685633,-0.202792,0.006580,10.022338,-0.002698,0.020786,-0.000788,-106.140617,-20.352840,-68.784637,0.000000,0.000000,
0,26.086000,0.000000,0.000000,nan,-0.095747,1.111815,5.671333,-0.120239,0.000598,10.020543,0.003105,0.005209,-0.010562,-106.140617,-20.352840,-68.784637,0.000000,0.000000,
0,26.146999,0.000000,0.000000,nan,-0.142571,1.175069,5.780366,-0.196810,-0.018544,9.966106,0.010741,-0.004412,-0.033774,-106.140617,-20.352840,-68.784637,0.000000,0.000000,
0,26.208000,0.000000,0.000000,nan,-0.112542,1.194662,5.719152,-0.179462,0.031107,10.074382,-0.000713,0.014830,-0.000788,-106.140617,-20.352840,-68.784637,0.000000,0.000000,
0,26.268999,0.000000,0.000000,nan,-0.083721,1.184010,5.710980,-0.156730,0.046660,10.055240,-0.002698,0.009180,-0.014379,-106.493973,-19.721975,-68.536057,0.000000,0.000000,
0,26.330000,0.000000,0.000000,nan,-0.109341,1.197683,5.701653,-0.238086,0.011366,10.049855,-0.006669,-0.016171,0.005016,-106.493973,-19.721975,-68.536057,0.000000,0.000000,
0,26.391001,0.000000,0.000000,nan,-0.049368,1.229174,5.823528,-0.228515,0.029312,10.051650,0.006923,0.005209,-0.039578,-106.493973,-19.721975,-68.536057,0.000000,0.000000,
0,26.452000,0.000000,0.000000,nan,-0.080835,1.247144,5.834218,-0.148953,-0.051446,10.042078,0.006923,-0.004565,0.008833,-106.417694,-19.903475,-68.619347,0.000000,0.000000,
0,26.513000,0.000000,0.000000,nan,-0.058803,1.235520,5.857828,-0.168096,0.016750,10.004392,0.010893,-0.000594,0.003030,-106.417694,-19.903475,-68.619347,0.000000,0.000000,
0,26.573999,0.000000,0.000000,nan,-0.040012,1.218703,5.831871,-0.138186,-0.003589,10.057034,0.004937,0.007194,-0.006591,-106.417694,-19.903475,-68.619347,0.000000,0.000000,
